% program   : RTKLIB ver.2.4.3
% inp file  : C:\Users\Satellite\Desktop\–азработки\Soft\RouteGNSS\TestData\2019 год в обработку\2019 год в обработку\B10P\B10P153a.19O
% inp file  : C:\Users\Satellite\Desktop\–азработки\Soft\RouteGNSS\TestData\2019 год в обработку\2019 год в обработку\B10P\B10P153a.19n
% inp file  : C:\Users\Satellite\Desktop\–азработки\Soft\RouteGNSS\TestData\2019 год в обработку\2019 год в обработку\B10P\B10P153a.19g
% obs start : 2019/06/01 23:59:42.0 UTC (week2056      0.0s)
% obs end   : 2019/06/02 23:59:37.0 UTC (week2056  86395.0s)
% pos mode  : Single
% elev mask : 15.0 deg
% ionos opt : Broadcast
% tropo opt : Saastamoinen
% ephemeris : Broadcast
% navi sys  : GPS GLONASS Galileo QZSS BDS NavIC SBAS
%
% (x/y/z-ecef=WGS84,Q=1:fix,2:float,3:sbas,4:dgps,5:single,6:ppp,ns=# of satellites)
%  UTC                       x-ecef(m)      y-ecef(m)      z-ecef(m)   Q  ns   sdx(m)   sdy(m)   sdz(m)  sdxy(m)  sdyz(m)  sdzx(m) age(s)  ratio
2019/06/01 23:59:42.000    -93392.8754   3860339.8835   5059773.4841   5   6   2.0598   4.1181   3.8180  -0.9920   2.4018   0.4277   0.00    0.0
2019/06/01 23:59:47.000    -93392.8500   3860339.8805   5059773.4978   5   6   2.0602   4.1201   3.8149  -0.9961   2.3999   0.4241   0.00    0.0
2019/06/01 23:59:52.000    -93392.8611   3860339.8773   5059773.4906   5   6   2.0606   4.1222   3.8119  -1.0002   2.3980   0.4206   0.00    0.0
2019/06/01 23:59:57.000    -93392.8618   3860339.8817   5059773.4947   5   6   2.0609   4.1242   3.8088  -1.0044   2.3962   0.4171   0.00    0.0
2019/06/02 00:00:02.000    -93392.8599   3860339.8532   5059773.4844   5   6   2.0613   4.1262   3.8057  -1.0085   2.3943   0.4135   0.00    0.0
2019/06/02 00:00:07.000    -93392.8470   3860339.8681   5059773.4877   5   6   2.0617   4.1282   3.8027  -1.0126   2.3924   0.4099   0.00    0.0
2019/06/02 00:00:12.000    -93392.8446   3860339.8242   5059773.4790   5   6   2.0621   4.1302   3.7996  -1.0167   2.3906   0.4063   0.00    0.0
2019/06/02 00:00:17.000    -93392.8411   3860339.8537   5059773.4813   5   6   2.0625   4.1323   3.7966  -1.0208   2.3887   0.4027   0.00    0.0
2019/06/02 00:00:22.000    -93392.8377   3860339.8334   5059773.4703   5   6   2.0629   4.1343   3.7935  -1.0249   2.3869   0.3990   0.00    0.0
2019/06/02 00:00:27.000    -93392.8325   3860339.8152   5059773.4658   5   6   2.0633   4.1364   3.7905  -1.0289   2.3850   0.3953   0.00    0.0
2019/06/02 00:00:32.000    -93392.8471   3860339.8040   5059773.4489   5   6   2.0637   4.1384   3.7875  -1.0330   2.3832   0.3916   0.00    0.0
2019/06/02 00:00:37.000    -93392.8409   3860339.8419   5059773.4475   5   6   2.0641   4.1405   3.7845  -1.0371   2.3813   0.3879   0.00    0.0
2019/06/02 00:00:42.000    -93392.8434   3860339.8428   5059773.4603   5   6   2.0646   4.1426   3.7815  -1.0411   2.3795   0.3842   0.00    0.0
2019/06/02 00:00:47.000    -93392.8373   3860339.8583   5059773.4852   5   6   2.0650   4.1446   3.7785  -1.0451   2.3777   0.3804   0.00    0.0
2019/06/02 00:00:52.000    -93392.8328   3860339.8536   5059773.4658   5   6   2.0654   4.1467   3.7755  -1.0492   2.3759   0.3766   0.00    0.0
2019/06/02 00:00:57.000    -93392.8275   3860339.8632   5059773.4689   5   6   2.0658   4.1488   3.7726  -1.0532   2.3741   0.3728   0.00    0.0
2019/06/02 00:01:02.000    -93392.8221   3860339.8885   5059773.4708   5   6   2.0662   4.1509   3.7696  -1.0572   2.3723   0.3689   0.00    0.0
2019/06/02 00:01:07.000    -93392.8198   3860339.8479   5059773.4760   5   6   2.0667   4.1530   3.7667  -1.0612   2.3705   0.3650   0.00    0.0
2019/06/02 00:01:12.000    -93392.8182   3860339.8889   5059773.4734   5   6   2.0671   4.1551   3.7637  -1.0652   2.3687   0.3611   0.00    0.0
2019/06/02 00:01:17.000    -93392.8128   3860339.8586   5059773.4527   5   6   2.0675   4.1572   3.7608  -1.0692   2.3669   0.3572   0.00    0.0
2019/06/02 00:01:22.000    -93392.8101   3860339.8855   5059773.4581   5   6   2.0679   4.1593   3.7578  -1.0732   2.3651   0.3532   0.00    0.0
2019/06/02 00:01:27.000    -93392.8101   3860339.8559   5059773.4314   5   6   2.0684   4.1614   3.7549  -1.0772   2.3633   0.3492   0.00    0.0
2019/06/02 00:01:32.000    -93392.7951   3860339.8796   5059773.4408   5   6   2.0688   4.1635   3.7520  -1.0812   2.3615   0.3452   0.00    0.0
2019/06/02 00:01:37.000    -93392.8033   3860339.8853   5059773.4075   5   6   2.0693   4.1657   3.7491  -1.0851   2.3598   0.3411   0.00    0.0
2019/06/02 00:01:42.000    -93392.7823   3860339.8866   5059773.4392   5   6   2.0697   4.1678   3.7462  -1.0891   2.3580   0.3370   0.00    0.0
2019/06/02 00:01:47.000    -93392.7826   3860339.9004   5059773.4611   5   6   2.0702   4.1699   3.7433  -1.0930   2.3563   0.3328   0.00    0.0
2019/06/02 00:01:52.000    -93392.7771   3860339.9168   5059773.4655   5   6   2.0706   4.1721   3.7404  -1.0970   2.3545   0.3286   0.00    0.0
2019/06/02 00:01:57.000    -93392.7488   3860339.9429   5059773.4842   5   6   2.0711   4.1742   3.7376  -1.1009   2.3528   0.3244   0.00    0.0
2019/06/02 00:02:02.000    -93392.7602   3860339.9330   5059773.4813   5   6   2.0715   4.1764   3.7347  -1.1049   2.3510   0.3201   0.00    0.0
2019/06/02 00:02:07.000    -93392.7441   3860339.9367   5059773.4724   5   6   2.0720   4.1785   3.7319  -1.1088   2.3493   0.3158   0.00    0.0
2019/06/02 00:02:12.000    -93392.7328   3860339.9733   5059773.4805   5   6   2.0724   4.1807   3.7290  -1.1127   2.3476   0.3114   0.00    0.0
2019/06/02 00:02:17.000    -93392.7271   3860339.9734   5059773.5114   5   6   2.0729   4.1829   3.7262  -1.1166   2.3459   0.3069   0.00    0.0
2019/06/02 00:02:22.000    -93392.7238   3860339.9776   5059773.5087   5   6   2.0734   4.1850   3.7234  -1.1205   2.3441   0.3025   0.00    0.0
2019/06/02 00:02:27.000    -93392.7238   3860339.9807   5059773.4783   5   6   2.0738   4.1872   3.7205  -1.1244   2.3424   0.2979   0.00    0.0
2019/06/02 00:02:32.000    -93392.7222   3860339.9869   5059773.4771   5   6   2.0743   4.1894   3.7177  -1.1283   2.3407   0.2934   0.00    0.0
2019/06/02 00:02:37.000    -93392.7226   3860339.9844   5059773.4981   5   6   2.0748   4.1916   3.7149  -1.1322   2.3390   0.2887   0.00    0.0
2019/06/02 00:02:42.000    -93392.7297   3860339.9983   5059773.5159   5   6   2.0752   4.1938   3.7121  -1.1361   2.3373   0.2840   0.00    0.0
2019/06/02 00:02:47.000    -93392.7418   3860340.0212   5059773.5241   5   6   2.0757   4.1960   3.7093  -1.1400   2.3357   0.2792   0.00    0.0
2019/06/02 00:02:52.000    -93392.7285   3860339.9899   5059773.5046   5   6   2.0762   4.1982   3.7065  -1.1439   2.3340   0.2744   0.00    0.0
2019/06/02 00:02:57.000    -93392.7437   3860340.0155   5059773.5044   5   6   2.0767   4.2004   3.7038  -1.1478   2.3323   0.2694   0.00    0.0
2019/06/02 00:03:02.000    -93392.7379   3860340.0248   5059773.5264   5   6   2.0772   4.2026   3.7010  -1.1516   2.3306   0.2645   0.00    0.0
2019/06/02 00:03:07.000    -93392.7243   3860340.0161   5059773.5168   5   6   2.0777   4.2048   3.6983  -1.1555   2.3290   0.2594   0.00    0.0
2019/06/02 00:03:12.000    -93392.7333   3860340.0386   5059773.5148   5   6   2.0782   4.2071   3.6955  -1.1593   2.3273   0.2542   0.00    0.0
2019/06/02 00:03:17.000    -93392.7356   3860340.0457   5059773.5313   5   6   2.0787   4.2093   3.6928  -1.1632   2.3256   0.2489   0.00    0.0
2019/06/02 00:03:22.000    -93392.7298   3860340.0281   5059773.5240   5   6   2.0791   4.2115   3.6900  -1.1670   2.3240   0.2436   0.00    0.0
2019/06/02 00:03:27.000    -93392.7650   3860340.0397   5059773.5198   5   6   2.0797   4.2138   3.6873  -1.1709   2.3224   0.2381   0.00    0.0
2019/06/02 00:03:32.000    -93392.7634   3860340.0502   5059773.5308   5   6   2.0802   4.2160   3.6846  -1.1747   2.3207   0.2326   0.00    0.0
2019/06/02 00:03:37.000    -93392.7430   3860340.0595   5059773.5532   5   6   2.0807   4.2183   3.6819  -1.1785   2.3191   0.2269   0.00    0.0
2019/06/02 00:03:42.000    -93392.7684   3860340.0431   5059773.5349   5   6   2.0812   4.2205   3.6792  -1.1824   2.3175   0.2210   0.00    0.0
2019/06/02 00:03:47.000    -93392.7784   3860340.0311   5059773.5509   5   6   2.0817   4.2228   3.6765  -1.1862   2.3158   0.2151   0.00    0.0
2019/06/02 00:03:52.000    -93392.7807   3860340.0542   5059773.5474   5   6   2.0822   4.2250   3.6738  -1.1900   2.3142   0.2089   0.00    0.0
2019/06/02 00:03:57.000    -93392.7772   3860340.0536   5059773.5657   5   6   2.0827   4.2273   3.6711  -1.1938   2.3126   0.2026   0.00    0.0
2019/06/02 00:04:02.000    -93392.7922   3860340.0465   5059773.5851   5   6   2.0832   4.2296   3.6685  -1.1976   2.3110   0.1962   0.00    0.0
2019/06/02 00:04:07.000    -93392.7993   3860340.0609   5059773.5658   5   6   2.0838   4.2319   3.6658  -1.2014   2.3094   0.1895   0.00    0.0
2019/06/02 00:04:12.000    -93392.8122   3860340.0759   5059773.5902   5   6   2.0843   4.2341   3.6632  -1.2052   2.3078   0.1826   0.00    0.0
2019/06/02 00:04:17.000    -93392.8004   3860340.0655   5059773.6051   5   6   2.0848   4.2364   3.6605  -1.2090   2.3062   0.1754   0.00    0.0
2019/06/02 00:04:22.000    -93392.8182   3860340.0988   5059773.6087   5   6   2.0854   4.2387   3.6579  -1.2128   2.3046   0.1680   0.00    0.0
2019/06/02 00:04:27.000    -93392.8062   3860340.0732   5059773.6179   5   6   2.0859   4.2410   3.6553  -1.2166   2.3030   0.1602   0.00    0.0
2019/06/02 00:04:32.000    -93392.8025   3860340.0676   5059773.6360   5   6   2.0864   4.2433   3.6526  -1.2204   2.3015   0.1521   0.00    0.0
2019/06/02 00:04:37.000    -93392.8077   3860340.0670   5059773.6290   5   6   2.0870   4.2456   3.6500  -1.2242   2.2999   0.1435   0.00    0.0
2019/06/02 00:04:42.000    -93392.8239   3860340.0400   5059773.6357   5   6   2.0875   4.2480   3.6474  -1.2280   2.2983   0.1344   0.00    0.0
2019/06/02 00:04:47.000    -93392.8267   3860340.0263   5059773.6346   5   6   2.0881   4.2503   3.6448  -1.2318   2.2968   0.1247   0.00    0.0
2019/06/02 00:04:52.000    -93392.8306   3860340.0409   5059773.6541   5   6   2.0886   4.2526   3.6422  -1.2355   2.2952   0.1142   0.00    0.0
2019/06/02 00:04:57.000    -93392.8316   3860340.0550   5059773.6871   5   6   2.0892   4.2549   3.6397  -1.2393   2.2937   0.1026   0.00    0.0
2019/06/02 00:05:02.000    -93392.8407   3860340.0405   5059773.6822   5   6   2.0897   4.2573   3.6371  -1.2431   2.2921   0.0896   0.00    0.0
2019/06/02 00:05:07.000    -93392.8289   3860340.0402   5059773.6729   5   6   2.0903   4.2596   3.6345  -1.2468   2.2906   0.0744   0.00    0.0
2019/06/02 00:05:12.000    -93392.8330   3860340.0228   5059773.6904   5   6   2.0908   4.2619   3.6320  -1.2506   2.2891   0.0551   0.00    0.0
2019/06/02 00:05:17.000    -93392.8423   3860340.0256   5059773.6949   5   6   2.0914   4.2643   3.6294  -1.2543   2.2875   0.0236   0.00    0.0
2019/06/02 00:05:22.000    -93392.8532   3860340.0157   5059773.6990   5   6   2.0920   4.2666   3.6269  -1.2581   2.2860  -0.0438   0.00    0.0
2019/06/02 00:05:27.000    -93392.8572   3860340.0044   5059773.6798   5   6   2.0925   4.2690   3.6243  -1.2618   2.2845  -0.0662   0.00    0.0
2019/06/02 00:05:32.000    -93392.8524   3860340.0187   5059773.6927   5   6   2.0931   4.2714   3.6218  -1.2656   2.2830  -0.0828   0.00    0.0
2019/06/02 00:05:37.000    -93392.8544   3860340.0071   5059773.6944   5   6   2.0937   4.2737   3.6193  -1.2693   2.2815  -0.0965   0.00    0.0
2019/06/02 00:05:42.000    -93392.8628   3860339.9554   5059773.7048   5   6   2.0943   4.2761   3.6168  -1.2731   2.2800  -0.1085   0.00    0.0
2019/06/02 00:05:47.000    -93392.8502   3860339.9511   5059773.7125   5   6   2.0948   4.2785   3.6143  -1.2768   2.2785  -0.1192   0.00    0.0
2019/06/02 00:05:52.000    -93392.8610   3860339.9141   5059773.6773   5   6   2.0954   4.2808   3.6118  -1.2805   2.2770  -0.1290   0.00    0.0
2019/06/02 00:05:57.000    -93392.8623   3860339.8975   5059773.6599   5   6   2.0960   4.2832   3.6093  -1.2843   2.2755  -0.1381   0.00    0.0
2019/06/02 00:06:02.000    -93392.8447   3860339.9042   5059773.6653   5   6   2.0966   4.2856   3.6068  -1.2880   2.2740  -0.1467   0.00    0.0
2019/06/02 00:06:07.000    -93392.8615   3860339.9020   5059773.6855   5   6   2.0972   4.2880   3.6043  -1.2917   2.2725  -0.1547   0.00    0.0
2019/06/02 00:06:12.000    -93392.8657   3860339.8876   5059773.6613   5   6   2.0978   4.2904   3.6019  -1.2954   2.2711  -0.1623   0.00    0.0
2019/06/02 00:06:17.000    -93392.8696   3860339.9005   5059773.6633   5   6   2.0984   4.2928   3.5994  -1.2992   2.2696  -0.1696   0.00    0.0
2019/06/02 00:06:22.000    -93392.8713   3860339.8870   5059773.6243   5   6   2.0990   4.2952   3.5970  -1.3029   2.2681  -0.1765   0.00    0.0
2019/06/02 00:06:27.000    -93392.8588   3860339.8917   5059773.6196   5   6   2.0996   4.2976   3.5945  -1.3066   2.2667  -0.1832   0.00    0.0
2019/06/02 00:06:32.000    -93392.8550   3860339.8925   5059773.6192   5   6   2.1002   4.3000   3.5921  -1.3103   2.2652  -0.1896   0.00    0.0
2019/06/02 00:06:37.000    -93392.8691   3860339.8518   5059773.6174   5   6   2.1008   4.3025   3.5897  -1.3140   2.2638  -0.1958   0.00    0.0
2019/06/02 00:06:42.000    -93392.8800   3860339.8722   5059773.6176   5   6   2.1014   4.3049   3.5872  -1.3177   2.2623  -0.2018   0.00    0.0
2019/06/02 00:06:47.000    -93392.8843   3860339.8862   5059773.6167   5   6   2.1021   4.3073   3.5848  -1.3214   2.2609  -0.2076   0.00    0.0
2019/06/02 00:06:52.000    -93392.8908   3860339.8541   5059773.5885   5   6   2.1027   4.3097   3.5824  -1.3251   2.2595  -0.2132   0.00    0.0
2019/06/02 00:06:57.000    -93392.8897   3860339.8578   5059773.5972   5   6   2.1033   4.3122   3.5800  -1.3288   2.2580  -0.2187   0.00    0.0
2019/06/02 00:07:02.000    -93392.8908   3860339.8600   5059773.6013   5   6   2.1039   4.3146   3.5776  -1.3325   2.2566  -0.2240   0.00    0.0
2019/06/02 00:07:07.000    -93392.9004   3860339.8764   5059773.6097   5   6   2.1046   4.3171   3.5753  -1.3362   2.2552  -0.2292   0.00    0.0
2019/06/02 00:07:12.000    -93392.8901   3860339.8995   5059773.6310   5   6   2.1052   4.3195   3.5729  -1.3399   2.2538  -0.2343   0.00    0.0
2019/06/02 00:07:17.000    -93392.9004   3860339.9103   5059773.6234   5   6   2.1058   4.3220   3.5705  -1.3436   2.2524  -0.2392   0.00    0.0
2019/06/02 00:07:22.000    -93392.9027   3860339.9007   5059773.6136   5   6   2.1065   4.3244   3.5682  -1.3473   2.2510  -0.2441   0.00    0.0
2019/06/02 00:07:27.000    -93392.6808   3860339.6291   5059774.3502   5   7   2.0264   4.2774   3.0104  -1.2035   2.5115  -1.0795   0.00    0.0
2019/06/02 00:07:32.000    -93392.6777   3860339.6517   5059774.3447   5   7   2.0269   4.2791   3.0100  -1.2061   2.5118  -1.0804   0.00    0.0
2019/06/02 00:07:37.000    -93392.6803   3860339.6636   5059774.3283   5   7   2.0273   4.2807   3.0096  -1.2086   2.5122  -1.0813   0.00    0.0
2019/06/02 00:07:42.000    -93392.6726   3860339.6852   5059774.3428   5   7   2.0277   4.2824   3.0091  -1.2112   2.5125  -1.0822   0.00    0.0
2019/06/02 00:07:47.000    -93392.6769   3860339.6778   5059774.3510   5   7   2.0281   4.2840   3.0087  -1.2138   2.5129  -1.0831   0.00    0.0
2019/06/02 00:07:52.000    -93392.6884   3860339.7008   5059774.3501   5   7   2.0285   4.2857   3.0083  -1.2163   2.5132  -1.0840   0.00    0.0
2019/06/02 00:07:57.000    -93392.6846   3860339.6771   5059774.3435   5   7   2.0289   4.2873   3.0080  -1.2189   2.5136  -1.0849   0.00    0.0
2019/06/02 00:08:02.000    -93392.6858   3860339.6755   5059774.3626   5   7   2.0293   4.2889   3.0076  -1.2215   2.5139  -1.0858   0.00    0.0
2019/06/02 00:08:07.000    -93392.6781   3860339.6565   5059774.3403   5   7   2.0298   4.2906   3.0072  -1.2240   2.5143  -1.0867   0.00    0.0
2019/06/02 00:08:12.000    -93392.6763   3860339.6825   5059774.3316   5   7   2.0302   4.2922   3.0068  -1.2266   2.5146  -1.0876   0.00    0.0
2019/06/02 00:08:17.000    -93392.6773   3860339.6635   5059774.3526   5   7   2.0306   4.2938   3.0064  -1.2291   2.5150  -1.0884   0.00    0.0
2019/06/02 00:08:22.000    -93392.6688   3860339.6720   5059774.3361   5   7   2.0310   4.2955   3.0060  -1.2317   2.5153  -1.0893   0.00    0.0
2019/06/02 00:08:27.000    -93392.6704   3860339.6533   5059774.3348   5   7   2.0314   4.2971   3.0056  -1.2342   2.5156  -1.0902   0.00    0.0
2019/06/02 00:08:32.000    -93392.6693   3860339.6348   5059774.2980   5   7   2.0319   4.2987   3.0052  -1.2368   2.5160  -1.0911   0.00    0.0
2019/06/02 00:08:37.000    -93392.6597   3860339.6442   5059774.3123   5   7   2.0323   4.3003   3.0049  -1.2393   2.5163  -1.0920   0.00    0.0
2019/06/02 00:08:42.000    -93392.6443   3860339.6588   5059774.3279   5   7   2.0327   4.3019   3.0045  -1.2418   2.5167  -1.0929   0.00    0.0
2019/06/02 00:08:47.000    -93392.6368   3860339.6520   5059774.3340   5   7   2.0332   4.3035   3.0041  -1.2444   2.5170  -1.0938   0.00    0.0
2019/06/02 00:08:52.000    -93392.6623   3860339.6633   5059774.3333   5   7   2.0336   4.3052   3.0037  -1.2469   2.5173  -1.0946   0.00    0.0
2019/06/02 00:08:57.000    -93392.6514   3860339.6547   5059774.3399   5   7   2.0340   4.3068   3.0034  -1.2494   2.5177  -1.0955   0.00    0.0
2019/06/02 00:09:02.000    -93392.6405   3860339.6668   5059774.3424   5   7   2.0345   4.3084   3.0030  -1.2519   2.5180  -1.0964   0.00    0.0
2019/06/02 00:09:07.000    -93392.6432   3860339.6806   5059774.3291   5   7   2.0349   4.3100   3.0026  -1.2545   2.5183  -1.0973   0.00    0.0
2019/06/02 00:09:12.000    -93392.6462   3860339.6732   5059774.3294   5   7   2.0353   4.3116   3.0023  -1.2570   2.5187  -1.0981   0.00    0.0
2019/06/02 00:09:17.000    -93392.6364   3860339.6704   5059774.3235   5   7   2.0358   4.3132   3.0019  -1.2595   2.5190  -1.0990   0.00    0.0
2019/06/02 00:09:22.000    -93392.6293   3860339.6933   5059774.3159   5   7   2.0362   4.3148   3.0016  -1.2620   2.5193  -1.0999   0.00    0.0
2019/06/02 00:09:27.000    -93392.6291   3860339.7180   5059774.3130   5   7   2.0367   4.3163   3.0012  -1.2645   2.5196  -1.1008   0.00    0.0
2019/06/02 00:09:32.000    -93392.6289   3860339.7285   5059774.3237   5   7   2.0371   4.3179   3.0008  -1.2671   2.5200  -1.1017   0.00    0.0
2019/06/02 00:09:37.000    -93392.6130   3860339.7570   5059774.3283   5   7   2.0376   4.3195   3.0005  -1.2696   2.5203  -1.1025   0.00    0.0
2019/06/02 00:09:42.000    -93392.6252   3860339.7501   5059774.3168   5   7   2.0380   4.3211   3.0001  -1.2721   2.5206  -1.1034   0.00    0.0
2019/06/02 00:09:47.000    -93392.6206   3860339.7328   5059774.3148   5   7   2.0385   4.3227   2.9998  -1.2746   2.5209  -1.1043   0.00    0.0
2019/06/02 00:09:52.000    -93392.6228   3860339.7538   5059774.3377   5   7   2.0389   4.3242   2.9994  -1.2771   2.5213  -1.1051   0.00    0.0
2019/06/02 00:09:57.000    -93392.6244   3860339.7772   5059774.3448   5   7   2.0394   4.3258   2.9991  -1.2796   2.5216  -1.1060   0.00    0.0
2019/06/02 00:10:02.000    -93392.6135   3860339.7525   5059774.3288   5   7   2.0398   4.3274   2.9988  -1.2821   2.5219  -1.1069   0.00    0.0
2019/06/02 00:10:07.000    -93392.6047   3860339.7538   5059774.3484   5   7   2.0403   4.3289   2.9984  -1.2846   2.5222  -1.1078   0.00    0.0
2019/06/02 00:10:12.000    -93392.6084   3860339.7541   5059774.3258   5   7   2.0407   4.3305   2.9981  -1.2871   2.5225  -1.1086   0.00    0.0
2019/06/02 00:10:17.000    -93392.6154   3860339.7419   5059774.3018   5   7   2.0412   4.3320   2.9977  -1.2895   2.5229  -1.1095   0.00    0.0
2019/06/02 00:10:22.000    -93393.2519   3860339.7899   5059775.5075   5   6   2.5306   4.3340   4.0533  -1.3271   2.5562  -2.3048   0.00    0.0
2019/06/02 00:10:27.000    -93393.2546   3860339.7979   5059775.5299   5   6   2.5314   4.3356   4.0547  -1.3317   2.5586  -2.3066   0.00    0.0
2019/06/02 00:10:32.000    -93393.2600   3860339.7927   5059775.5502   5   6   2.5323   4.3372   4.0562  -1.3364   2.5610  -2.3083   0.00    0.0
2019/06/02 00:10:37.000    -93393.2644   3860339.7777   5059775.5349   5   6   2.5331   4.3388   4.0577  -1.3410   2.5635  -2.3100   0.00    0.0
2019/06/02 00:10:42.000    -93393.2893   3860339.8196   5059775.5800   5   6   2.5340   4.3405   4.0592  -1.3456   2.5659  -2.3118   0.00    0.0
2019/06/02 00:10:47.000    -93393.2995   3860339.7948   5059775.5855   5   6   2.5349   4.3421   4.0607  -1.3503   2.5684  -2.3135   0.00    0.0
2019/06/02 00:10:52.000    -93393.3013   3860339.8316   5059775.6132   5   6   2.5357   4.3437   4.0622  -1.3549   2.5709  -2.3152   0.00    0.0
2019/06/02 00:10:57.000    -93393.3152   3860339.7993   5059775.6281   5   6   2.5366   4.3453   4.0637  -1.3595   2.5733  -2.3170   0.00    0.0
2019/06/02 00:11:02.000    -93393.3255   3860339.8206   5059775.6305   5   6   2.5375   4.3469   4.0652  -1.3641   2.5758  -2.3187   0.00    0.0
2019/06/02 00:11:07.000    -93393.3379   3860339.8329   5059775.6426   5   6   2.5384   4.3485   4.0668  -1.3687   2.5783  -2.3205   0.00    0.0
2019/06/02 00:11:12.000    -93393.3506   3860339.8063   5059775.6445   5   6   2.5392   4.3501   4.0683  -1.3733   2.5808  -2.3222   0.00    0.0
2019/06/02 00:11:17.000    -93393.3464   3860339.8256   5059775.6418   5   6   2.5401   4.3517   4.0698  -1.3778   2.5832  -2.3239   0.00    0.0
2019/06/02 00:11:22.000    -93393.2497   3860339.7063   5059775.5169   5   7   1.8541   3.9112   3.2914   1.1875   1.4510  -1.1159   0.00    0.0
2019/06/02 00:11:27.000    -93393.0861   3860339.4978   5059775.2605   5   7   1.8540   3.9114   3.2924   1.1858   1.4519  -1.1170   0.00    0.0
2019/06/02 00:11:32.000    -93392.9859   3860339.3467   5059775.1156   5   7   1.8538   3.9115   3.2935   1.1841   1.4529  -1.1182   0.00    0.0
2019/06/02 00:11:37.000    -93392.9296   3860339.3281   5059775.0638   5   7   1.8536   3.9117   3.2945   1.1823   1.4538  -1.1193   0.00    0.0
2019/06/02 00:11:42.000    -93392.7879   3860339.1745   5059774.8761   5   7   1.8535   3.9119   3.2955   1.1806   1.4547  -1.1204   0.00    0.0
2019/06/02 00:11:47.000    -93392.7456   3860339.1374   5059774.7954   5   7   1.8533   3.9121   3.2965   1.1788   1.4557  -1.1215   0.00    0.0
2019/06/02 00:11:52.000    -93392.7063   3860339.0358   5059774.7221   5   7   1.8531   3.9122   3.2976   1.1771   1.4567  -1.1226   0.00    0.0
2019/06/02 00:11:57.000    -93392.7417   3860339.0697   5059774.7607   5   7   1.8530   3.9124   3.2986   1.1753   1.4576  -1.1237   0.00    0.0
2019/06/02 00:12:02.000    -93392.7338   3860339.0968   5059774.7766   5   7   1.8528   3.9125   3.2996   1.1735   1.4586  -1.1248   0.00    0.0
2019/06/02 00:12:07.000    -93392.7328   3860339.0889   5059774.7713   5   7   1.8527   3.9127   3.3007   1.1718   1.4596  -1.1260   0.00    0.0
2019/06/02 00:12:12.000    -93392.7516   3860339.0904   5059774.7766   5   7   1.8525   3.9128   3.3017   1.1700   1.4605  -1.1271   0.00    0.0
2019/06/02 00:12:17.000    -93392.7643   3860339.0924   5059774.7721   5   7   1.8523   3.9130   3.3028   1.1682   1.4615  -1.1282   0.00    0.0
2019/06/02 00:12:22.000    -93392.7868   3860339.1122   5059774.7917   5   7   1.8522   3.9131   3.3038   1.1664   1.4625  -1.1293   0.00    0.0
2019/06/02 00:12:27.000    -93392.7877   3860339.1105   5059774.8057   5   7   1.8520   3.9133   3.3049   1.1646   1.4635  -1.1304   0.00    0.0
2019/06/02 00:12:32.000    -93392.7985   3860339.1841   5059774.8516   5   7   1.8519   3.9134   3.3059   1.1628   1.4645  -1.1315   0.00    0.0
2019/06/02 00:12:37.000    -93392.8317   3860339.1809   5059774.8318   5   7   1.8517   3.9135   3.3070   1.1610   1.4655  -1.1326   0.00    0.0
2019/06/02 00:12:42.000    -93392.8699   3860339.1636   5059774.8453   5   7   1.8516   3.9137   3.3080   1.1592   1.4665  -1.1337   0.00    0.0
2019/06/02 00:12:47.000    -93392.8853   3860339.1734   5059774.8603   5   7   1.8514   3.9138   3.3091   1.1573   1.4675  -1.1348   0.00    0.0
2019/06/02 00:12:52.000    -93392.8749   3860339.2150   5059774.8923   5   7   1.8513   3.9139   3.3102   1.1555   1.4686  -1.1359   0.00    0.0
2019/06/02 00:12:57.000    -93392.8893   3860339.2509   5059774.8892   5   7   1.8511   3.9141   3.3113   1.1537   1.4696  -1.1370   0.00    0.0
2019/06/02 00:13:02.000    -93392.9043   3860339.2439   5059774.9189   5   7   1.8510   3.9142   3.3123   1.1518   1.4706  -1.1381   0.00    0.0
2019/06/02 00:13:07.000    -93392.9196   3860339.2156   5059774.9282   5   7   1.8508   3.9143   3.3134   1.1500   1.4717  -1.1392   0.00    0.0
2019/06/02 00:13:12.000    -93392.9395   3860339.2335   5059774.9052   5   7   1.8507   3.9144   3.3145   1.1481   1.4727  -1.1404   0.00    0.0
2019/06/02 00:13:17.000    -93392.9511   3860339.2679   5059774.9281   5   7   1.8505   3.9145   3.3156   1.1463   1.4738  -1.1415   0.00    0.0
2019/06/02 00:13:22.000    -93392.9463   3860339.2675   5059774.9532   5   7   1.8504   3.9146   3.3167   1.1444   1.4748  -1.1426   0.00    0.0
2019/06/02 00:13:27.000    -93392.9514   3860339.2701   5059774.9431   5   7   1.8503   3.9147   3.3178   1.1425   1.4759  -1.1437   0.00    0.0
2019/06/02 00:13:32.000    -93392.9589   3860339.2755   5059774.9140   5   7   1.8501   3.9148   3.3189   1.1407   1.4770  -1.1448   0.00    0.0
2019/06/02 00:13:37.000    -93392.9670   3860339.2669   5059774.9383   5   7   1.8500   3.9149   3.3200   1.1388   1.4780  -1.1459   0.00    0.0
2019/06/02 00:13:42.000    -93392.9775   3860339.2482   5059774.9591   5   7   1.8498   3.9150   3.3211   1.1369   1.4791  -1.1470   0.00    0.0
2019/06/02 00:13:47.000    -93392.9961   3860339.2816   5059774.9459   5   7   1.8497   3.9151   3.3222   1.1350   1.4802  -1.1481   0.00    0.0
2019/06/02 00:13:52.000    -93392.9947   3860339.2968   5059774.9602   5   7   1.8496   3.9152   3.3233   1.1331   1.4813  -1.1492   0.00    0.0
2019/06/02 00:13:57.000    -93392.9999   3860339.2779   5059774.9730   5   7   1.8494   3.9153   3.3244   1.1312   1.4824  -1.1503   0.00    0.0
2019/06/02 00:14:02.000    -93393.0073   3860339.3013   5059774.9805   5   7   1.8493   3.9153   3.3255   1.1293   1.4835  -1.1514   0.00    0.0
2019/06/02 00:14:07.000    -93393.0121   3860339.2711   5059774.9653   5   7   1.8492   3.9154   3.3266   1.1274   1.4846  -1.1525   0.00    0.0
2019/06/02 00:14:12.000    -93393.0110   3860339.2468   5059774.9702   5   7   1.8490   3.9155   3.3278   1.1254   1.4857  -1.1536   0.00    0.0
2019/06/02 00:14:17.000    -93393.0042   3860339.2706   5059774.9859   5   7   1.8489   3.9156   3.3289   1.1235   1.4868  -1.1547   0.00    0.0
2019/06/02 00:14:22.000    -93393.0052   3860339.2781   5059774.9732   5   7   1.8488   3.9156   3.3300   1.1216   1.4879  -1.1558   0.00    0.0
2019/06/02 00:14:27.000    -93393.0075   3860339.2759   5059774.9989   5   7   1.8487   3.9157   3.3312   1.1196   1.4891  -1.1569   0.00    0.0
2019/06/02 00:14:32.000    -93393.0065   3860339.2926   5059775.0180   5   7   1.8485   3.9158   3.3323   1.1177   1.4902  -1.1580   0.00    0.0
2019/06/02 00:14:37.000    -93393.0033   3860339.2680   5059775.0138   5   7   1.8484   3.9158   3.3334   1.1157   1.4913  -1.1591   0.00    0.0
2019/06/02 00:14:42.000    -93392.9932   3860339.2929   5059775.0035   5   7   1.8483   3.9159   3.3346   1.1138   1.4925  -1.1602   0.00    0.0
2019/06/02 00:14:47.000    -93393.0052   3860339.2600   5059775.0320   5   7   1.8482   3.9159   3.3357   1.1118   1.4936  -1.1613   0.00    0.0
2019/06/02 00:14:52.000    -93393.0003   3860339.2928   5059775.0477   5   7   1.8480   3.9160   3.3369   1.1098   1.4948  -1.1624   0.00    0.0
2019/06/02 00:14:57.000    -93392.9900   3860339.3098   5059775.0393   5   7   1.8479   3.9160   3.3380   1.1078   1.4959  -1.1635   0.00    0.0
2019/06/02 00:15:02.000    -93392.9939   3860339.3371   5059775.0606   5   7   1.8478   3.9160   3.3392   1.1058   1.4971  -1.1646   0.00    0.0
2019/06/02 00:15:07.000    -93392.9925   3860339.3585   5059775.0983   5   7   1.8477   3.9161   3.3403   1.1038   1.4983  -1.1657   0.00    0.0
2019/06/02 00:15:12.000    -93392.9944   3860339.3696   5059775.1237   5   7   1.8476   3.9161   3.3415   1.1018   1.4995  -1.1667   0.00    0.0
2019/06/02 00:15:17.000    -93392.9860   3860339.3867   5059775.1157   5   7   1.8475   3.9162   3.3427   1.0998   1.5006  -1.1678   0.00    0.0
2019/06/02 00:15:22.000    -93392.9979   3860339.3842   5059775.1112   5   7   1.8473   3.9162   3.3438   1.0978   1.5018  -1.1689   0.00    0.0
2019/06/02 00:15:27.000    -93393.0062   3860339.3881   5059775.1313   5   7   1.8472   3.9162   3.3450   1.0958   1.5030  -1.1700   0.00    0.0
2019/06/02 00:15:32.000    -93392.9992   3860339.3943   5059775.1241   5   7   1.8471   3.9162   3.3462   1.0937   1.5042  -1.1711   0.00    0.0
2019/06/02 00:15:37.000    -93392.9923   3860339.4306   5059775.1442   5   7   1.8470   3.9162   3.3474   1.0917   1.5054  -1.1722   0.00    0.0
2019/06/02 00:15:42.000    -93392.9780   3860339.4441   5059775.1597   5   7   1.8469   3.9163   3.3486   1.0897   1.5066  -1.1733   0.00    0.0
2019/06/02 00:15:47.000    -93392.9778   3860339.4393   5059775.1446   5   7   1.8468   3.9163   3.3497   1.0876   1.5078  -1.1744   0.00    0.0
2019/06/02 00:15:52.000    -93392.9685   3860339.4354   5059775.1137   5   7   1.8467   3.9163   3.3509   1.0856   1.5091  -1.1755   0.00    0.0
2019/06/02 00:15:57.000    -93392.9689   3860339.4482   5059775.1355   5   7   1.8466   3.9163   3.3521   1.0835   1.5103  -1.1766   0.00    0.0
2019/06/02 00:16:02.000    -93392.9601   3860339.4732   5059775.1229   5   7   1.8465   3.9163   3.3533   1.0814   1.5115  -1.1777   0.00    0.0
2019/06/02 00:16:07.000    -93392.9538   3860339.4810   5059775.1414   5   7   1.8464   3.9163   3.3545   1.0793   1.5127  -1.1788   0.00    0.0
2019/06/02 00:16:12.000    -93392.9670   3860339.4949   5059775.1450   5   7   1.8463   3.9163   3.3557   1.0773   1.5140  -1.1799   0.00    0.0
2019/06/02 00:16:17.000    -93392.9672   3860339.5006   5059775.1205   5   7   1.8462   3.9163   3.3569   1.0752   1.5152  -1.1810   0.00    0.0
2019/06/02 00:16:22.000    -93392.9743   3860339.4806   5059775.1443   5   7   1.8461   3.9163   3.3581   1.0731   1.5165  -1.1820   0.00    0.0
2019/06/02 00:16:27.000    -93392.9773   3860339.5155   5059775.1495   5   7   1.8460   3.9163   3.3594   1.0709   1.5177  -1.1831   0.00    0.0
2019/06/02 00:16:32.000    -93392.9627   3860339.5109   5059775.1327   5   7   1.8459   3.9163   3.3606   1.0688   1.5190  -1.1842   0.00    0.0
2019/06/02 00:16:37.000    -93392.8748   3860339.6517   5059775.1945   5   6   2.4997   5.2477   3.6576   2.6507   2.7101   1.0120   0.00    0.0
2019/06/02 00:16:42.000    -93392.8700   3860339.6212   5059775.1872   5   6   2.4976   5.2458   3.6602   2.6470   2.7124   1.0116   0.00    0.0
2019/06/02 00:16:47.000    -93392.8770   3860339.6396   5059775.1486   5   6   2.4955   5.2440   3.6627   2.6432   2.7147   1.0111   0.00    0.0
2019/06/02 00:16:52.000    -93392.8556   3860339.6898   5059775.1463   5   6   2.4934   5.2421   3.6653   2.6395   2.7170   1.0107   0.00    0.0
2019/06/02 00:16:57.000    -93392.8563   3860339.6626   5059775.1521   5   6   2.4913   5.2403   3.6678   2.6358   2.7193   1.0102   0.00    0.0
2019/06/02 00:17:02.000    -93392.8500   3860339.6947   5059775.1528   5   6   2.4892   5.2384   3.6704   2.6321   2.7216   1.0098   0.00    0.0
2019/06/02 00:17:07.000    -93392.8678   3860339.6798   5059775.1458   5   6   2.4871   5.2366   3.6730   2.6283   2.7239   1.0093   0.00    0.0
2019/06/02 00:17:12.000    -93392.8684   3860339.6669   5059775.1536   5   6   2.4851   5.2347   3.6756   2.6246   2.7262   1.0088   0.00    0.0
2019/06/02 00:17:17.000    -93392.8672   3860339.6723   5059775.1642   5   6   2.4830   5.2329   3.6782   2.6209   2.7285   1.0084   0.00    0.0
2019/06/02 00:17:22.000    -93392.8697   3860339.6944   5059775.1564   5   6   2.4809   5.2310   3.6808   2.6172   2.7308   1.0079   0.00    0.0
2019/06/02 00:17:27.000    -93392.8777   3860339.7223   5059775.1631   5   6   2.4789   5.2291   3.6834   2.6134   2.7331   1.0074   0.00    0.0
2019/06/02 00:17:32.000    -93392.8660   3860339.7264   5059775.1549   5   6   2.4768   5.2273   3.6860   2.6097   2.7355   1.0069   0.00    0.0
2019/06/02 00:17:37.000    -93392.8793   3860339.7081   5059775.1594   5   6   2.4748   5.2254   3.6886   2.6060   2.7378   1.0064   0.00    0.0
2019/06/02 00:17:42.000    -93392.8903   3860339.7105   5059775.1344   5   6   2.4727   5.2236   3.6913   2.6022   2.7401   1.0059   0.00    0.0
2019/06/02 00:17:47.000    -93392.8821   3860339.7073   5059775.1594   5   6   2.4707   5.2217   3.6939   2.5985   2.7424   1.0054   0.00    0.0
2019/06/02 00:17:52.000    -93392.8742   3860339.7467   5059775.1737   5   6   2.4686   5.2199   3.6966   2.5948   2.7448   1.0049   0.00    0.0
2019/06/02 00:17:57.000    -93392.8815   3860339.7405   5059775.1381   5   6   2.4666   5.2180   3.6992   2.5910   2.7471   1.0044   0.00    0.0
2019/06/02 00:18:02.000    -93392.8895   3860339.7431   5059775.1468   5   6   2.4646   5.2162   3.7019   2.5873   2.7494   1.0039   0.00    0.0
2019/06/02 00:18:07.000    -93392.8847   3860339.7447   5059775.1905   5   6   2.4625   5.2143   3.7046   2.5835   2.7518   1.0034   0.00    0.0
2019/06/02 00:18:12.000    -93392.9082   3860339.7321   5059775.1613   5   6   2.4605   5.2125   3.7072   2.5798   2.7541   1.0029   0.00    0.0
2019/06/02 00:18:17.000    -93392.9125   3860339.7180   5059775.1611   5   6   2.4585   5.2106   3.7099   2.5760   2.7565   1.0023   0.00    0.0
2019/06/02 00:18:22.000    -93392.9075   3860339.7146   5059775.1664   5   6   2.4565   5.2088   3.7126   2.5723   2.7588   1.0018   0.00    0.0
2019/06/02 00:18:27.000    -93392.9101   3860339.6919   5059775.1467   5   6   2.4545   5.2069   3.7153   2.5686   2.7612   1.0013   0.00    0.0
2019/06/02 00:18:32.000    -93392.9038   3860339.6779   5059775.1586   5   6   2.4524   5.2051   3.7181   2.5648   2.7635   1.0007   0.00    0.0
2019/06/02 00:18:37.000    -93392.8883   3860339.6934   5059775.1598   5   6   2.4504   5.2032   3.7208   2.5611   2.7659   1.0002   0.00    0.0
2019/06/02 00:18:42.000    -93392.8922   3860339.6954   5059775.1517   5   6   2.4484   5.2013   3.7235   2.5573   2.7682   0.9996   0.00    0.0
2019/06/02 00:18:47.000    -93392.8970   3860339.6600   5059775.1500   5   6   2.4465   5.1995   3.7263   2.5536   2.7706   0.9991   0.00    0.0
2019/06/02 00:18:52.000    -93392.8958   3860339.6781   5059775.1676   5   6   2.4445   5.1976   3.7290   2.5498   2.7730   0.9985   0.00    0.0
2019/06/02 00:18:57.000    -93392.9085   3860339.6726   5059775.1751   5   6   2.4425   5.1958   3.7318   2.5460   2.7753   0.9979   0.00    0.0
2019/06/02 00:19:02.000    -93392.9019   3860339.6966   5059775.1936   5   6   2.4405   5.1939   3.7345   2.5423   2.7777   0.9974   0.00    0.0
2019/06/02 00:19:07.000    -93392.8924   3860339.7048   5059775.2314   5   6   2.4385   5.1921   3.7373   2.5385   2.7801   0.9968   0.00    0.0
2019/06/02 00:19:12.000    -93392.8891   3860339.6956   5059775.2184   5   6   2.4366   5.1902   3.7401   2.5348   2.7825   0.9962   0.00    0.0
2019/06/02 00:19:17.000    -93392.8800   3860339.6974   5059775.1939   5   6   2.4346   5.1884   3.7429   2.5310   2.7848   0.9956   0.00    0.0
2019/06/02 00:19:22.000    -93392.8655   3860339.7217   5059775.2327   5   6   2.4326   5.1865   3.7457   2.5273   2.7872   0.9950   0.00    0.0
2019/06/02 00:19:27.000    -93392.8636   3860339.6968   5059775.2376   5   6   2.4307   5.1847   3.7485   2.5235   2.7896   0.9944   0.00    0.0
2019/06/02 00:19:32.000    -93392.8742   3860339.6954   5059775.2110   5   6   2.4287   5.1828   3.7513   2.5197   2.7920   0.9938   0.00    0.0
2019/06/02 00:19:37.000    -93392.8686   3860339.6933   5059775.2187   5   6   2.4268   5.1810   3.7542   2.5160   2.7944   0.9932   0.00    0.0
2019/06/02 00:19:42.000    -93392.8615   3860339.7127   5059775.2608   5   6   2.4248   5.1791   3.7570   2.5122   2.7968   0.9926   0.00    0.0
2019/06/02 00:19:47.000    -93392.8660   3860339.6641   5059775.2146   5   6   2.4229   5.1773   3.7598   2.5084   2.7992   0.9920   0.00    0.0
2019/06/02 00:19:52.000    -93392.8772   3860339.6539   5059775.2217   5   6   2.4209   5.1755   3.7627   2.5047   2.8016   0.9914   0.00    0.0
2019/06/02 00:19:57.000    -93392.8769   3860339.6191   5059775.2089   5   6   2.4190   5.1736   3.7656   2.5009   2.8040   0.9907   0.00    0.0
2019/06/02 00:20:02.000    -93392.8792   3860339.6291   5059775.2258   5   6   2.4171   5.1718   3.7684   2.4971   2.8064   0.9901   0.00    0.0
2019/06/02 00:20:07.000    -93392.8824   3860339.6141   5059775.1957   5   6   2.4152   5.1699   3.7713   2.4934   2.8089   0.9895   0.00    0.0
2019/06/02 00:20:12.000    -93392.8828   3860339.6116   5059775.2041   5   6   2.4132   5.1681   3.7742   2.4896   2.8113   0.9888   0.00    0.0
2019/06/02 00:20:17.000    -93392.8734   3860339.6103   5059775.2201   5   6   2.4113   5.1662   3.7771   2.4858   2.8137   0.9882   0.00    0.0
2019/06/02 00:20:22.000    -93392.8725   3860339.6257   5059775.2295   5   6   2.4094   5.1644   3.7800   2.4820   2.8161   0.9875   0.00    0.0
2019/06/02 00:20:27.000    -93392.8766   3860339.6227   5059775.2263   5   6   2.4075   5.1626   3.7829   2.4783   2.8186   0.9869   0.00    0.0
2019/06/02 00:20:32.000    -93392.8806   3860339.6263   5059775.2504   5   6   2.4056   5.1607   3.7858   2.4745   2.8210   0.9862   0.00    0.0
2019/06/02 00:20:37.000    -93392.8914   3860339.6021   5059775.2596   5   6   2.4037   5.1589   3.7888   2.4707   2.8234   0.9856   0.00    0.0
2019/06/02 00:20:42.000    -93392.8993   3860339.5947   5059775.2363   5   6   2.4018   5.1571   3.7917   2.4669   2.8259   0.9849   0.00    0.0
2019/06/02 00:20:47.000    -93392.9075   3860339.5855   5059775.2350   5   6   2.3999   5.1552   3.7946   2.4631   2.8283   0.9842   0.00    0.0
2019/06/02 00:20:52.000    -93392.8863   3860339.5887   5059775.2389   5   6   2.3980   5.1534   3.7976   2.4594   2.8308   0.9835   0.00    0.0
2019/06/02 00:20:57.000    -93392.8944   3860339.5894   5059775.2329   5   6   2.3962   5.1516   3.8006   2.4556   2.8332   0.9828   0.00    0.0
2019/06/02 00:21:02.000    -93392.8894   3860339.5861   5059775.2266   5   6   2.3943   5.1497   3.8035   2.4518   2.8357   0.9821   0.00    0.0
2019/06/02 00:21:07.000    -93392.8794   3860339.5531   5059775.2086   5   6   2.3924   5.1479   3.8065   2.4480   2.8381   0.9814   0.00    0.0
2019/06/02 00:21:12.000    -93392.8721   3860339.5477   5059775.2346   5   6   2.3906   5.1461   3.8095   2.4442   2.8406   0.9807   0.00    0.0
2019/06/02 00:21:17.000    -93392.8815   3860339.5613   5059775.1841   5   6   2.3887   5.1442   3.8125   2.4404   2.8431   0.9800   0.00    0.0
2019/06/02 00:21:22.000    -93392.8903   3860339.5409   5059775.1791   5   6   2.3868   5.1424   3.8155   2.4366   2.8455   0.9793   0.00    0.0
2019/06/02 00:21:27.000    -93392.8903   3860339.5526   5059775.2120   5   6   2.3850   5.1406   3.8186   2.4329   2.8480   0.9786   0.00    0.0
2019/06/02 00:21:32.000    -93392.8887   3860339.5309   5059775.2007   5   6   2.3831   5.1388   3.8216   2.4291   2.8505   0.9779   0.00    0.0
2019/06/02 00:21:37.000    -93392.8961   3860339.5333   5059775.1846   5   6   2.3813   5.1369   3.8246   2.4253   2.8530   0.9771   0.00    0.0
2019/06/02 00:21:42.000    -93392.9054   3860339.5131   5059775.1799   5   6   2.3795   5.1351   3.8277   2.4215   2.8555   0.9764   0.00    0.0
2019/06/02 00:21:47.000    -93392.9020   3860339.4925   5059775.1800   5   6   2.3776   5.1333   3.8307   2.4177   2.8580   0.9757   0.00    0.0
2019/06/02 00:21:52.000    -93392.9110   3860339.4474   5059775.1491   5   6   2.3758   5.1315   3.8338   2.4139   2.8604   0.9749   0.00    0.0
2019/06/02 00:21:57.000    -93392.9336   3860339.4307   5059775.1152   5   6   2.3740   5.1297   3.8369   2.4101   2.8629   0.9742   0.00    0.0
2019/06/02 00:22:02.000    -93392.9338   3860339.4026   5059775.1174   5   6   2.3721   5.1279   3.8399   2.4063   2.8654   0.9734   0.00    0.0
2019/06/02 00:22:07.000    -93392.9342   3860339.4265   5059775.1403   5   6   2.3703   5.1260   3.8430   2.4025   2.8680   0.9726   0.00    0.0
2019/06/02 00:22:12.000    -93392.9648   3860339.3871   5059775.0937   5   6   2.3685   5.1242   3.8461   2.3987   2.8705   0.9719   0.00    0.0
2019/06/02 00:22:17.000    -93392.9492   3860339.4072   5059775.0733   5   6   2.3667   5.1224   3.8492   2.3949   2.8730   0.9711   0.00    0.0
2019/06/02 00:22:22.000    -93392.9411   3860339.3811   5059775.0798   5   6   2.3649   5.1206   3.8524   2.3911   2.8755   0.9703   0.00    0.0
2019/06/02 00:22:27.000    -93392.9428   3860339.3607   5059775.0741   5   6   2.3631   5.1188   3.8555   2.3873   2.8780   0.9695   0.00    0.0
2019/06/02 00:22:32.000    -93392.9462   3860339.3641   5059775.0479   5   6   2.3613   5.1170   3.8586   2.3835   2.8805   0.9687   0.00    0.0
2019/06/02 00:22:37.000    -93392.9397   3860339.3934   5059775.0536   5   6   2.3595   5.1152   3.8618   2.3797   2.8831   0.9679   0.00    0.0
2019/06/02 00:22:42.000    -93392.9190   3860339.3751   5059775.0635   5   6   2.3577   5.1134   3.8649   2.3759   2.8856   0.9671   0.00    0.0
2019/06/02 00:22:47.000    -93392.9204   3860339.3778   5059775.0218   5   6   2.3560   5.1116   3.8681   2.3721   2.8881   0.9663   0.00    0.0
2019/06/02 00:22:52.000    -93392.9119   3860339.3679   5059774.9809   5   6   2.3542   5.1098   3.8713   2.3682   2.8907   0.9655   0.00    0.0
2019/06/02 00:22:57.000    -93392.9082   3860339.3830   5059775.0229   5   6   2.3524   5.1080   3.8745   2.3644   2.8932   0.9647   0.00    0.0
2019/06/02 00:23:02.000    -93392.9054   3860339.3913   5059775.0368   5   6   2.3506   5.1063   3.8777   2.3606   2.8958   0.9639   0.00    0.0
2019/06/02 00:23:07.000    -93392.9174   3860339.4026   5059774.9947   5   6   2.3489   5.1045   3.8809   2.3568   2.8983   0.9630   0.00    0.0
2019/06/02 00:23:12.000    -93392.9055   3860339.4052   5059774.9782   5   6   2.3471   5.1027   3.8841   2.3530   2.9009   0.9622   0.00    0.0
2019/06/02 00:23:17.000    -93392.9087   3860339.4181   5059775.0163   5   6   2.3454   5.1009   3.8873   2.3492   2.9035   0.9613   0.00    0.0
2019/06/02 00:23:22.000    -93392.8956   3860339.4534   5059775.0259   5   6   2.3436   5.0991   3.8905   2.3454   2.9060   0.9605   0.00    0.0
2019/06/02 00:23:27.000    -93392.9001   3860339.4326   5059774.9688   5   6   2.3419   5.0973   3.8938   2.3415   2.9086   0.9596   0.00    0.0
2019/06/02 00:23:32.000    -93392.8928   3860339.4835   5059774.9954   5   6   2.3401   5.0956   3.8970   2.3377   2.9112   0.9588   0.00    0.0
2019/06/02 00:23:37.000    -93392.8908   3860339.5067   5059775.0457   5   6   2.3384   5.0938   3.9003   2.3339   2.9137   0.9579   0.00    0.0
2019/06/02 00:23:42.000    -93392.8801   3860339.5111   5059774.9804   5   6   2.3367   5.0920   3.9036   2.3301   2.9163   0.9570   0.00    0.0
2019/06/02 00:23:47.000    -93392.8897   3860339.5249   5059774.9658   5   6   2.3350   5.0902   3.9068   2.3263   2.9189   0.9561   0.00    0.0
2019/06/02 00:23:52.000    -93392.8726   3860339.5160   5059774.9742   5   6   2.3332   5.0885   3.9101   2.3224   2.9215   0.9553   0.00    0.0
2019/06/02 00:23:57.000    -93392.8703   3860339.5510   5059775.0165   5   6   2.3315   5.0867   3.9134   2.3186   2.9241   0.9544   0.00    0.0
2019/06/02 00:24:02.000    -93392.8673   3860339.6057   5059774.9992   5   6   2.3298   5.0850   3.9167   2.3148   2.9267   0.9535   0.00    0.0
2019/06/02 00:24:07.000    -93392.8707   3860339.5625   5059775.0113   5   6   2.3281   5.0832   3.9200   2.3110   2.9293   0.9526   0.00    0.0
2019/06/02 00:24:12.000    -93392.8578   3860339.5926   5059775.0467   5   6   2.3264   5.0814   3.9234   2.3071   2.9319   0.9517   0.00    0.0
2019/06/02 00:24:17.000    -93392.8617   3860339.6112   5059775.0356   5   6   2.3247   5.0797   3.9267   2.3033   2.9345   0.9507   0.00    0.0
2019/06/02 00:24:22.000    -93392.8666   3860339.5987   5059775.0210   5   6   2.3230   5.0779   3.9301   2.2995   2.9372   0.9498   0.00    0.0
2019/06/02 00:24:27.000    -93392.8567   3860339.6045   5059775.0392   5   6   2.3213   5.0762   3.9334   2.2956   2.9398   0.9489   0.00    0.0
2019/06/02 00:24:32.000    -93392.8469   3860339.6018   5059775.0574   5   6   2.3196   5.0744   3.9368   2.2918   2.9424   0.9479   0.00    0.0
2019/06/02 00:24:37.000    -93392.8586   3860339.6008   5059775.0432   5   6   2.3179   5.0727   3.9402   2.2880   2.9450   0.9470   0.00    0.0
2019/06/02 00:24:42.000    -93392.8622   3860339.6391   5059775.0589   5   6   2.3163   5.0710   3.9435   2.2841   2.9477   0.9460   0.00    0.0
2019/06/02 00:24:47.000    -93392.8624   3860339.6159   5059775.0846   5   6   2.3146   5.0692   3.9469   2.2803   2.9503   0.9451   0.00    0.0
2019/06/02 00:24:52.000    -93392.8538   3860339.6213   5059775.0851   5   6   2.3129   5.0675   3.9503   2.2764   2.9530   0.9441   0.00    0.0
2019/06/02 00:24:57.000    -93392.8835   3860339.5962   5059775.0814   5   6   2.3113   5.0658   3.9538   2.2726   2.9556   0.9432   0.00    0.0
2019/06/02 00:25:02.000    -93392.8751   3860339.6086   5059775.0877   5   6   2.3096   5.0640   3.9572   2.2688   2.9583   0.9422   0.00    0.0
2019/06/02 00:25:07.000    -93392.8697   3860339.5954   5059775.1095   5   6   2.3080   5.0623   3.9606   2.2649   2.9609   0.9412   0.00    0.0
2019/06/02 00:25:12.000    -93392.8800   3860339.6316   5059775.1120   5   6   2.3063   5.0606   3.9641   2.2611   2.9636   0.9402   0.00    0.0
2019/06/02 00:25:17.000    -93392.8921   3860339.6237   5059775.0768   5   6   2.3047   5.0589   3.9675   2.2572   2.9663   0.9392   0.00    0.0
2019/06/02 00:25:22.000    -93392.8949   3860339.5913   5059775.1038   5   6   2.3030   5.0572   3.9710   2.2534   2.9689   0.9382   0.00    0.0
2019/06/02 00:25:27.000    -93392.8841   3860339.5806   5059775.1217   5   6   2.3014   5.0554   3.9745   2.2495   2.9716   0.9372   0.00    0.0
2019/06/02 00:25:32.000    -93392.8899   3860339.5899   5059775.0990   5   6   2.2998   5.0537   3.9779   2.2457   2.9743   0.9362   0.00    0.0
2019/06/02 00:25:37.000    -93392.8986   3860339.6280   5059775.0850   5   6   2.2981   5.0520   3.9814   2.2418   2.9770   0.9351   0.00    0.0
2019/06/02 00:25:42.000    -93392.8922   3860339.5936   5059775.0866   5   6   2.2965   5.0503   3.9849   2.2380   2.9797   0.9341   0.00    0.0
2019/06/02 00:25:47.000    -93392.8746   3860339.6167   5059775.1037   5   6   2.2949   5.0486   3.9885   2.2341   2.9824   0.9331   0.00    0.0
2019/06/02 00:25:52.000    -93392.8988   3860339.5900   5059775.0464   5   6   2.2933   5.0469   3.9920   2.2303   2.9851   0.9320   0.00    0.0
2019/06/02 00:25:57.000    -93392.8858   3860339.6046   5059775.0485   5   6   2.2917   5.0452   3.9955   2.2264   2.9878   0.9310   0.00    0.0
2019/06/02 00:26:02.000    -93392.8702   3860339.6129   5059775.0396   5   6   2.2901   5.0436   3.9991   2.2226   2.9905   0.9299   0.00    0.0
2019/06/02 00:26:07.000    -93392.8675   3860339.5938   5059775.0188   5   6   2.2885   5.0419   4.0026   2.2187   2.9932   0.9289   0.00    0.0
2019/06/02 00:26:12.000    -93392.8705   3860339.5902   5059774.9707   5   6   2.2869   5.0402   4.0062   2.2148   2.9960   0.9278   0.00    0.0
2019/06/02 00:26:17.000    -93392.8741   3860339.6343   5059775.0058   5   6   2.2853   5.0385   4.0098   2.2110   2.9987   0.9267   0.00    0.0
2019/06/02 00:26:22.000    -93392.8790   3860339.6343   5059774.9911   5   6   2.2837   5.0368   4.0133   2.2071   3.0014   0.9256   0.00    0.0
2019/06/02 00:26:27.000    -93392.8701   3860339.6777   5059774.9882   5   6   2.2821   5.0352   4.0169   2.2033   3.0042   0.9245   0.00    0.0
2019/06/02 00:26:32.000    -93392.8744   3860339.6795   5059774.9419   5   6   2.2806   5.0335   4.0205   2.1994   3.0069   0.9234   0.00    0.0
2019/06/02 00:26:37.000    -93392.8814   3860339.6596   5059774.9722   5   6   2.2790   5.0318   4.0242   2.1955   3.0096   0.9223   0.00    0.0
2019/06/02 00:26:42.000    -93392.8639   3860339.6718   5059774.9905   5   6   2.2774   5.0302   4.0278   2.1916   3.0124   0.9212   0.00    0.0
2019/06/02 00:26:47.000    -93392.8681   3860339.6890   5059774.9367   5   6   2.2759   5.0285   4.0314   2.1878   3.0152   0.9201   0.00    0.0
2019/06/02 00:26:52.000    -93392.8709   3860339.6945   5059774.9268   5   6   2.2743   5.0269   4.0351   2.1839   3.0179   0.9189   0.00    0.0
2019/06/02 00:26:57.000    -93392.8726   3860339.7130   5059774.9484   5   6   2.2727   5.0252   4.0387   2.1800   3.0207   0.9178   0.00    0.0
2019/06/02 00:27:02.000    -93392.8668   3860339.7582   5059774.9400   5   6   2.2712   5.0236   4.0424   2.1762   3.0235   0.9166   0.00    0.0
2019/06/02 00:27:07.000    -93392.8631   3860339.7417   5059774.9111   5   6   2.2697   5.0219   4.0461   2.1723   3.0263   0.9155   0.00    0.0
2019/06/02 00:27:12.000    -93392.8517   3860339.7542   5059774.9355   5   6   2.2681   5.0203   4.0498   2.1684   3.0290   0.9143   0.00    0.0
2019/06/02 00:27:17.000    -93392.8520   3860339.7493   5059774.9113   5   6   2.2666   5.0187   4.0535   2.1645   3.0318   0.9132   0.00    0.0
2019/06/02 00:27:22.000    -93392.8491   3860339.7236   5059774.8603   5   6   2.2650   5.0170   4.0572   2.1606   3.0346   0.9120   0.00    0.0
2019/06/02 00:27:27.000    -93392.8404   3860339.7420   5059774.8644   5   6   2.2635   5.0154   4.0609   2.1568   3.0374   0.9108   0.00    0.0
2019/06/02 00:27:32.000    -93392.8352   3860339.7315   5059774.8856   5   6   2.2620   5.0138   4.0646   2.1529   3.0402   0.9096   0.00    0.0
2019/06/02 00:27:37.000    -93392.8173   3860339.7522   5059774.8524   5   6   2.2605   5.0122   4.0684   2.1490   3.0430   0.9084   0.00    0.0
2019/06/02 00:27:42.000    -93392.8202   3860339.7540   5059774.8408   5   6   2.2590   5.0106   4.0721   2.1451   3.0459   0.9072   0.00    0.0
2019/06/02 00:27:47.000    -93392.7975   3860339.7616   5059774.8322   5   6   2.2575   5.0089   4.0759   2.1412   3.0487   0.9060   0.00    0.0
2019/06/02 00:27:52.000    -93392.7952   3860339.7383   5059774.8064   5   6   2.2560   5.0073   4.0797   2.1373   3.0515   0.9047   0.00    0.0
2019/06/02 00:27:57.000    -93392.7908   3860339.7435   5059774.8188   5   6   2.2545   5.0057   4.0835   2.1334   3.0544   0.9035   0.00    0.0
2019/06/02 00:28:02.000    -93392.7917   3860339.7371   5059774.8017   5   6   2.2530   5.0042   4.0873   2.1295   3.0572   0.9023   0.00    0.0
2019/06/02 00:28:07.000    -93392.7803   3860339.6935   5059774.7847   5   6   2.2515   5.0026   4.0911   2.1256   3.0600   0.9010   0.00    0.0
2019/06/02 00:28:12.000    -93392.7801   3860339.7118   5059774.7956   5   6   2.2500   5.0010   4.0949   2.1217   3.0629   0.8998   0.00    0.0
2019/06/02 00:28:17.000    -93392.7873   3860339.7332   5059774.7974   5   6   2.2485   4.9994   4.0987   2.1178   3.0657   0.8985   0.00    0.0
2019/06/02 00:28:22.000    -93392.7846   3860339.6948   5059774.7595   5   6   2.2470   4.9978   4.1026   2.1139   3.0686   0.8972   0.00    0.0
2019/06/02 00:28:27.000    -93392.7750   3860339.6699   5059774.7628   5   6   2.2456   4.9962   4.1064   2.1100   3.0715   0.8959   0.00    0.0
2019/06/02 00:28:32.000    -93392.7876   3860339.7323   5059774.8007   5   6   2.2441   4.9947   4.1103   2.1061   3.0744   0.8946   0.00    0.0
2019/06/02 00:28:37.000    -93392.8011   3860339.7081   5059774.7545   5   6   2.2426   4.9931   4.1142   2.1022   3.0772   0.8933   0.00    0.0
2019/06/02 00:28:42.000    -93392.8079   3860339.6996   5059774.7383   5   6   2.2412   4.9915   4.1180   2.0983   3.0801   0.8920   0.00    0.0
2019/06/02 00:28:47.000    -93392.8178   3860339.7218   5059774.7712   5   6   2.2397   4.9900   4.1219   2.0944   3.0830   0.8907   0.00    0.0
2019/06/02 00:28:52.000    -93392.8085   3860339.7527   5059774.7930   5   6   2.2383   4.9884   4.1258   2.0905   3.0859   0.8894   0.00    0.0
2019/06/02 00:28:57.000    -93392.8214   3860339.7655   5059774.8152   5   6   2.2368   4.9869   4.1298   2.0866   3.0888   0.8880   0.00    0.0
2019/06/02 00:29:02.000    -93392.8218   3860339.7930   5059774.8319   5   6   2.2354   4.9854   4.1337   2.0827   3.0917   0.8867   0.00    0.0
2019/06/02 00:29:07.000    -93392.8255   3860339.8242   5059774.8403   5   6   2.2340   4.9838   4.1376   2.0788   3.0946   0.8853   0.00    0.0
2019/06/02 00:29:12.000    -93392.8432   3860339.7977   5059774.8322   5   6   2.2325   4.9823   4.1416   2.0748   3.0976   0.8840   0.00    0.0
2019/06/02 00:29:17.000    -93392.8433   3860339.8098   5059774.8585   5   6   2.2311   4.9808   4.1455   2.0709   3.1005   0.8826   0.00    0.0
2019/06/02 00:29:22.000    -93392.8466   3860339.8238   5059774.8617   5   6   2.2297   4.9792   4.1495   2.0670   3.1034   0.8812   0.00    0.0
2019/06/02 00:29:27.000    -93392.8604   3860339.8285   5059774.8595   5   6   2.2283   4.9777   4.1535   2.0631   3.1064   0.8798   0.00    0.0
2019/06/02 00:29:32.000    -93392.8499   3860339.7763   5059774.8237   5   6   2.2269   4.9762   4.1575   2.0592   3.1093   0.8784   0.00    0.0
2019/06/02 00:29:37.000    -93392.8531   3860339.7673   5059774.7917   5   6   2.2255   4.9747   4.1615   2.0552   3.1123   0.8770   0.00    0.0
2019/06/02 00:29:42.000    -93392.8678   3860339.7826   5059774.8219   5   6   2.2241   4.9732   4.1655   2.0513   3.1152   0.8756   0.00    0.0
2019/06/02 00:29:47.000    -93392.8611   3860339.7989   5059774.8574   5   6   2.2227   4.9717   4.1696   2.0474   3.1182   0.8742   0.00    0.0
2019/06/02 00:29:52.000    -93392.8602   3860339.7911   5059774.8144   5   6   2.2213   4.9702   4.1736   2.0434   3.1211   0.8727   0.00    0.0
2019/06/02 00:29:57.000    -93392.8647   3860339.7893   5059774.8370   5   6   2.2199   4.9687   4.1777   2.0395   3.1241   0.8713   0.00    0.0
2019/06/02 00:30:02.000    -93392.8721   3860339.7653   5059774.7927   5   6   2.2185   4.9672   4.1817   2.0355   3.1271   0.8698   0.00    0.0
2019/06/02 00:30:07.000    -93392.8748   3860339.7637   5059774.7809   5   6   2.2171   4.9658   4.1858   2.0316   3.1301   0.8684   0.00    0.0
2019/06/02 00:30:12.000    -93392.8661   3860339.7886   5059774.7767   5   6   2.2157   4.9643   4.1899   2.0277   3.1331   0.8669   0.00    0.0
2019/06/02 00:30:17.000    -93392.8658   3860339.7803   5059774.7955   5   6   2.2144   4.9628   4.1940   2.0237   3.1361   0.8654   0.00    0.0
2019/06/02 00:30:22.000    -93392.8734   3860339.7911   5059774.7720   5   6   2.2130   4.9614   4.1981   2.0198   3.1391   0.8639   0.00    0.0
2019/06/02 00:30:27.000    -93392.8815   3860339.7993   5059774.7893   5   6   2.2116   4.9599   4.2022   2.0158   3.1421   0.8624   0.00    0.0
2019/06/02 00:30:32.000    -93392.8853   3860339.8252   5059774.8015   5   6   2.2103   4.9585   4.2064   2.0119   3.1451   0.8609   0.00    0.0
2019/06/02 00:30:37.000    -93392.8879   3860339.8192   5059774.8050   5   6   2.2089   4.9570   4.2105   2.0079   3.1482   0.8593   0.00    0.0
2019/06/02 00:30:42.000    -93392.8836   3860339.8266   5059774.7924   5   6   2.2076   4.9556   4.2147   2.0040   3.1512   0.8578   0.00    0.0
2019/06/02 00:30:47.000    -93392.9057   3860339.8307   5059774.7755   5   6   2.2062   4.9541   4.2188   2.0000   3.1542   0.8563   0.00    0.0
2019/06/02 00:30:52.000    -93392.8888   3860339.8270   5059774.7566   5   6   2.2049   4.9527   4.2230   1.9960   3.1573   0.8547   0.00    0.0
2019/06/02 00:30:57.000    -93392.8936   3860339.8401   5059774.7640   5   6   2.2036   4.9513   4.2272   1.9921   3.1603   0.8531   0.00    0.0
2019/06/02 00:31:02.000    -93392.9134   3860339.8556   5059774.7917   5   6   2.2022   4.9499   4.2314   1.9881   3.1634   0.8515   0.00    0.0
2019/06/02 00:31:07.000    -93392.9049   3860339.8789   5059774.7981   5   6   2.2009   4.9485   4.2356   1.9841   3.1665   0.8500   0.00    0.0
2019/06/02 00:31:12.000    -93392.9265   3860339.9054   5059774.8367   5   6   2.1996   4.9471   4.2399   1.9802   3.1695   0.8484   0.00    0.0
2019/06/02 00:31:17.000    -93392.9327   3860339.9147   5059774.8248   5   6   2.1983   4.9457   4.2441   1.9762   3.1726   0.8467   0.00    0.0
2019/06/02 00:31:22.000    -93392.9339   3860339.9205   5059774.8318   5   6   2.1970   4.9443   4.2484   1.9722   3.1757   0.8451   0.00    0.0
2019/06/02 00:31:27.000    -93392.9101   3860339.9578   5059774.8440   5   6   2.1957   4.9429   4.2526   1.9682   3.1788   0.8435   0.00    0.0
2019/06/02 00:31:32.000    -93392.9315   3860339.9457   5059774.8269   5   6   2.1944   4.9415   4.2569   1.9643   3.1819   0.8418   0.00    0.0
2019/06/02 00:31:37.000    -93392.9187   3860339.9539   5059774.8140   5   6   2.1931   4.9401   4.2612   1.9603   3.1850   0.8402   0.00    0.0
2019/06/02 00:31:42.000    -93392.9321   3860339.9561   5059774.8161   5   6   2.1918   4.9388   4.2655   1.9563   3.1881   0.8385   0.00    0.0
2019/06/02 00:31:47.000    -93392.9559   3860339.9846   5059774.8517   5   6   2.1905   4.9374   4.2698   1.9523   3.1912   0.8368   0.00    0.0
2019/06/02 00:31:52.000    -93392.9758   3860340.0179   5059774.8773   5   6   2.1892   4.9360   4.2741   1.9483   3.1943   0.8351   0.00    0.0
2019/06/02 00:31:57.000    -93392.9810   3860340.0065   5059774.8687   5   6   2.1879   4.9347   4.2785   1.9443   3.1975   0.8334   0.00    0.0
2019/06/02 00:32:02.000    -93392.9988   3860340.0424   5059774.8807   5   6   2.1866   4.9333   4.2828   1.9403   3.2006   0.8317   0.00    0.0
2019/06/02 00:32:07.000    -93392.9810   3860339.9984   5059774.8464   5   6   2.1854   4.9320   4.2872   1.9363   3.2038   0.8300   0.00    0.0
2019/06/02 00:32:12.000    -93392.9864   3860339.9516   5059774.8327   5   6   2.1841   4.9306   4.2915   1.9323   3.2069   0.8282   0.00    0.0
2019/06/02 00:32:17.000    -93392.9654   3860339.9585   5059774.7941   5   6   2.1828   4.9293   4.2959   1.9283   3.2101   0.8265   0.00    0.0
2019/06/02 00:32:22.000    -93392.9450   3860339.8853   5059774.7260   5   6   2.1816   4.9280   4.3003   1.9243   3.2133   0.8247   0.00    0.0
2019/06/02 00:32:27.000    -93392.9254   3860339.8403   5059774.7059   5   6   2.1803   4.9267   4.3047   1.9203   3.2164   0.8229   0.00    0.0
2019/06/02 00:32:32.000    -93392.9543   3860339.8149   5059774.7132   5   6   2.1791   4.9254   4.3092   1.9163   3.2196   0.8211   0.00    0.0
2019/06/02 00:32:37.000    -93392.9432   3860339.7857   5059774.6635   5   6   2.1778   4.9241   4.3136   1.9123   3.2228   0.8193   0.00    0.0
2019/06/02 00:32:42.000    -93392.9542   3860339.7981   5059774.6930   5   6   2.1766   4.9228   4.3180   1.9082   3.2260   0.8175   0.00    0.0
2019/06/02 00:32:47.000    -93392.9700   3860339.8459   5059774.7484   5   6   2.1754   4.9215   4.3225   1.9042   3.2292   0.8157   0.00    0.0
2019/06/02 00:32:52.000    -93392.9709   3860339.8524   5059774.7784   5   6   2.1741   4.9202   4.3270   1.9002   3.2324   0.8138   0.00    0.0
2019/06/02 00:32:57.000    -93392.9901   3860339.8514   5059774.7546   5   6   2.1729   4.9189   4.3315   1.8962   3.2356   0.8120   0.00    0.0
2019/06/02 00:33:02.000    -93392.9959   3860339.8388   5059774.7645   5   6   2.1717   4.9176   4.3360   1.8921   3.2389   0.8101   0.00    0.0
2019/06/02 00:33:07.000    -93392.9855   3860339.8393   5059774.7945   5   6   2.1705   4.9164   4.3405   1.8881   3.2421   0.8082   0.00    0.0
2019/06/02 00:33:12.000    -93392.9919   3860339.8462   5059774.7735   5   6   2.1693   4.9151   4.3450   1.8840   3.2453   0.8063   0.00    0.0
2019/06/02 00:33:17.000    -93392.9922   3860339.8211   5059774.7581   5   6   2.1680   4.9139   4.3495   1.8800   3.2486   0.8044   0.00    0.0
2019/06/02 00:33:22.000    -93392.9834   3860339.7910   5059774.7536   5   6   2.1668   4.9126   4.3541   1.8760   3.2518   0.8025   0.00    0.0
2019/06/02 00:33:27.000    -93392.9795   3860339.8082   5059774.7515   5   6   2.1656   4.9114   4.3586   1.8719   3.2551   0.8006   0.00    0.0
2019/06/02 00:33:32.000    -93392.9994   3860339.7809   5059774.7594   5   6   2.1644   4.9101   4.3632   1.8679   3.2584   0.7986   0.00    0.0
