% program   : RTKLIB ver.2.4.3
% inp file  : C:\Users\Satellite\Desktop\Разработки\Soft\RouteGNSS\TestData\karg219e20.20o
% inp file  : C:\Users\Satellite\Desktop\Разработки\Soft\RouteGNSS\TestData\karg219e20.20n
% inp file  : C:\Users\Satellite\Desktop\Разработки\Soft\RouteGNSS\TestData\karg219e20.20g
% obs start : 2020/08/06 04:19:42.0 UTC (week2117 361200.0s)
% obs end   : 2020/08/06 05:19:32.0 UTC (week2117 364790.0s)
% pos mode  : Single
% elev mask : 15.0 deg
% ionos opt : Broadcast
% tropo opt : Saastamoinen
% ephemeris : Broadcast
% navi sys  : GPS GLONASS Galileo QZSS BDS NavIC SBAS
%
% (x/y/z-ecef=WGS84,Q=1:fix,2:float,3:sbas,4:dgps,5:single,6:ppp,ns=# of satellites)
%  UTC                       x-ecef(m)      y-ecef(m)      z-ecef(m)   Q  ns   sdx(m)   sdy(m)   sdz(m)  sdxy(m)  sdyz(m)  sdzx(m) age(s)  ratio
2020/08/06 04:19:42.000    615983.5405   3596818.4079   5213663.9469   5  13   3.2386   5.5818   7.3084  -1.3276   5.1018  -1.4338   0.00    0.0
2020/08/06 04:19:52.000    615983.5733   3596818.1209   5213663.7484   5  13   3.2385   5.5868   7.3060  -1.3259   5.1049  -1.4264   0.00    0.0
2020/08/06 04:20:02.000    615983.5892   3596818.1192   5213663.7728   5  13   3.2384   5.5919   7.3036  -1.3242   5.1080  -1.4189   0.00    0.0
2020/08/06 04:20:12.000    615983.6284   3596818.1815   5213663.7442   5  13   3.2384   5.5968   7.3011  -1.3224   5.1109  -1.4114   0.00    0.0
2020/08/06 04:20:22.000    615983.6533   3596818.2748   5213663.6512   5  13   3.2383   5.6018   7.2986  -1.3207   5.1139  -1.4038   0.00    0.0
2020/08/06 04:20:32.000    615983.6831   3596818.3781   5213663.4604   5  13   3.2383   5.6067   7.2960  -1.3189   5.1167  -1.3962   0.00    0.0
2020/08/06 04:20:42.000    615983.6847   3596818.4441   5213663.3887   5  13   3.2382   5.6116   7.2934  -1.3171   5.1195  -1.3885   0.00    0.0
2020/08/06 04:20:52.000    615983.6543   3596818.3998   5213663.2267   5  13   3.2382   5.6165   7.2908  -1.3153   5.1223  -1.3808   0.00    0.0
2020/08/06 04:21:02.000    615983.6563   3596818.3683   5213663.1728   5  13   3.2382   5.6214   7.2881  -1.3135   5.1250  -1.3731   0.00    0.0
2020/08/06 04:21:12.000    615983.6689   3596818.3096   5213663.0447   5  13   3.2381   5.6262   7.2853  -1.3116   5.1276  -1.3653   0.00    0.0
2020/08/06 04:21:22.000    615983.7007   3596818.1866   5213662.9736   5  13   3.2381   5.6310   7.2825  -1.3098   5.1302  -1.3575   0.00    0.0
2020/08/06 04:21:32.000    615983.7365   3596818.1698   5213662.9208   5  13   3.2380   5.6357   7.2796  -1.3079   5.1327  -1.3496   0.00    0.0
2020/08/06 04:21:42.000    615983.7553   3596818.1505   5213662.8860   5  13   3.2380   5.6405   7.2767  -1.3060   5.1352  -1.3416   0.00    0.0
2020/08/06 04:21:52.000    615983.7738   3596818.1759   5213662.9704   5  13   3.2380   5.6452   7.2738  -1.3040   5.1376  -1.3336   0.00    0.0
2020/08/06 04:22:02.000    615983.8142   3596818.2659   5213663.0881   5  13   3.2380   5.6499   7.2708  -1.3021   5.1400  -1.3256   0.00    0.0
2020/08/06 04:22:12.000    615983.8605   3596818.3059   5213663.3069   5  13   3.2379   5.6545   7.2677  -1.3002   5.1423  -1.3175   0.00    0.0
2020/08/06 04:22:22.000    615983.9131   3596818.3295   5213663.4692   5  13   3.2379   5.6591   7.2646  -1.2982   5.1445  -1.3094   0.00    0.0
2020/08/06 04:22:32.000    615983.9088   3596818.3257   5213663.5371   5  13   3.2379   5.6637   7.2615  -1.2962   5.1467  -1.3012   0.00    0.0
2020/08/06 04:22:42.000    615983.8890   3596818.3273   5213663.6040   5  13   3.2379   5.6683   7.2583  -1.2942   5.1488  -1.2930   0.00    0.0
2020/08/06 04:22:52.000    615983.8497   3596818.3876   5213663.8111   5  13   3.2379   5.6728   7.2551  -1.2922   5.1509  -1.2847   0.00    0.0
2020/08/06 04:23:02.000    615983.7911   3596818.4689   5213663.9861   5  13   3.2378   5.6773   7.2518  -1.2902   5.1529  -1.2763   0.00    0.0
2020/08/06 04:23:12.000    615983.7101   3596818.4194   5213663.9929   5  13   3.2378   5.6817   7.2485  -1.2881   5.1548  -1.2679   0.00    0.0
2020/08/06 04:23:22.000    615983.6261   3596818.3378   5213663.9828   5  13   3.2378   5.6862   7.2451  -1.2860   5.1567  -1.2595   0.00    0.0
2020/08/06 04:23:32.000    615983.5786   3596818.2693   5213663.8874   5  13   3.2378   5.6906   7.2417  -1.2840   5.1585  -1.2510   0.00    0.0
2020/08/06 04:23:42.000    615983.4791   3596818.1992   5213663.8113   5  13   3.2378   5.6949   7.2382  -1.2819   5.1603  -1.2424   0.00    0.0
2020/08/06 04:23:52.000    615983.4197   3596818.0193   5213663.6893   5  13   3.2378   5.6993   7.2347  -1.2798   5.1620  -1.2338   0.00    0.0
2020/08/06 04:24:02.000    615983.3189   3596817.8121   5213663.6409   5  13   3.2378   5.7036   7.2311  -1.2776   5.1637  -1.2252   0.00    0.0
2020/08/06 04:24:12.000    615983.3218   3596817.7986   5213663.5490   5  13   3.2378   5.7078   7.2275  -1.2755   5.1653  -1.2164   0.00    0.0
2020/08/06 04:24:22.000    615983.3544   3596817.8115   5213663.5108   5  13   3.2378   5.7121   7.2239  -1.2733   5.1668  -1.2077   0.00    0.0
2020/08/06 04:24:32.000    615983.4322   3596817.9238   5213663.4070   5  13   3.2378   5.7163   7.2202  -1.2712   5.1683  -1.1988   0.00    0.0
2020/08/06 04:24:42.000    615983.4819   3596818.0748   5213663.5360   5  13   3.2378   5.7205   7.2164  -1.2690   5.1697  -1.1899   0.00    0.0
2020/08/06 04:24:52.000    615983.5076   3596818.1609   5213663.5890   5  13   3.2379   5.7246   7.2127  -1.2668   5.1711  -1.1810   0.00    0.0
2020/08/06 04:25:02.000    615983.5374   3596818.2164   5213663.5673   5  13   3.2379   5.7287   7.2088  -1.2646   5.1724  -1.1719   0.00    0.0
2020/08/06 04:25:12.000    615983.5968   3596818.3283   5213663.5773   5  13   3.2379   5.7328   7.2050  -1.2624   5.1737  -1.1629   0.00    0.0
2020/08/06 04:25:22.000    615983.5842   3596818.4117   5213663.7890   5  13   3.2379   5.7369   7.2010  -1.2601   5.1749  -1.1537   0.00    0.0
2020/08/06 04:25:32.000    615983.5994   3596818.4637   5213663.8632   5  13   3.2379   5.7409   7.1971  -1.2579   5.1760  -1.1445   0.00    0.0
2020/08/06 04:25:42.000    615983.6324   3596818.3856   5213663.7033   5  13   3.2380   5.7448   7.1931  -1.2556   5.1771  -1.1352   0.00    0.0
2020/08/06 04:25:52.000    615983.6233   3596818.3856   5213663.7942   5  13   3.2380   5.7488   7.1890  -1.2533   5.1781  -1.1259   0.00    0.0
2020/08/06 04:26:02.000    615983.6034   3596818.2726   5213663.6921   5  13   3.2380   5.7527   7.1850  -1.2511   5.1791  -1.1165   0.00    0.0
2020/08/06 04:26:12.000    615983.6111   3596818.1917   5213663.6824   5  13   3.2381   5.7566   7.1808  -1.2488   5.1800  -1.1070   0.00    0.0
2020/08/06 04:26:22.000    615983.5903   3596818.1096   5213663.7246   5  13   3.2381   5.7604   7.1766  -1.2464   5.1808  -1.0975   0.00    0.0
2020/08/06 04:26:32.000    615983.5564   3596818.1359   5213663.6410   5  13   3.2381   5.7643   7.1724  -1.2441   5.1816  -1.0878   0.00    0.0
2020/08/06 04:26:42.000    615983.5957   3596818.1142   5213663.5192   5  13   3.2382   5.7680   7.1682  -1.2418   5.1824  -1.0781   0.00    0.0
2020/08/06 04:26:52.000    615983.5135   3596818.1370   5213663.5279   5  13   3.2382   5.7718   7.1639  -1.2395   5.1831  -1.0684   0.00    0.0
2020/08/06 04:27:02.000    615983.4990   3596818.1576   5213663.5488   5  13   3.2383   5.7755   7.1595  -1.2371   5.1837  -1.0585   0.00    0.0
2020/08/06 04:27:12.000    615983.4768   3596818.1922   5213663.5281   5  13   3.2383   5.7792   7.1552  -1.2347   5.1843  -1.0486   0.00    0.0
2020/08/06 04:27:22.000    615983.4389   3596818.2396   5213663.5101   5  13   3.2384   5.7828   7.1507  -1.2324   5.1848  -1.0386   0.00    0.0
2020/08/06 04:27:32.000    615983.4452   3596818.2460   5213663.5682   5  13   3.2384   5.7865   7.1463  -1.2300   5.1852  -1.0285   0.00    0.0
2020/08/06 04:27:42.000    615983.4966   3596818.2468   5213663.4122   5  13   3.2385   5.7900   7.1418  -1.2276   5.1856  -1.0184   0.00    0.0
2020/08/06 04:27:52.000    615983.5709   3596818.2780   5213663.3344   5  13   3.2385   5.7936   7.1372  -1.2252   5.1860  -1.0081   0.00    0.0
2020/08/06 04:28:02.000    615983.6183   3596818.1875   5213663.2990   5  13   3.2386   5.7971   7.1326  -1.2228   5.1863  -0.9978   0.00    0.0
2020/08/06 04:28:12.000    615983.7030   3596818.1377   5213663.2314   5  13   3.2386   5.8006   7.1280  -1.2203   5.1865  -0.9874   0.00    0.0
2020/08/06 04:28:22.000    615983.7214   3596817.9861   5213663.1630   5  13   3.2387   5.8040   7.1233  -1.2179   5.1867  -0.9768   0.00    0.0
2020/08/06 04:28:32.000    615983.7835   3596817.9903   5213663.1767   5  13   3.2388   5.8075   7.1186  -1.2155   5.1868  -0.9662   0.00    0.0
2020/08/06 04:28:42.000    615983.8347   3596818.0564   5213663.2000   5  13   3.2388   5.8108   7.1139  -1.2130   5.1869  -0.9555   0.00    0.0
2020/08/06 04:28:52.000    615983.8069   3596818.1429   5213663.2708   5  13   3.2389   5.8142   7.1091  -1.2105   5.1869  -0.9447   0.00    0.0
2020/08/06 04:29:02.000    615983.8729   3596818.1111   5213663.2277   5  14   2.9305   5.3896   6.3081   1.2497   4.4438   1.9069   0.00    0.0
2020/08/06 04:29:12.000    615983.9008   3596818.1753   5213663.2060   5  14   2.9305   5.3944   6.3094   1.2504   4.4480   1.9076   0.00    0.0
2020/08/06 04:29:22.000    615983.8315   3596818.3986   5213663.4089   5  14   2.9306   5.3992   6.3106   1.2511   4.4522   1.9083   0.00    0.0
2020/08/06 04:29:32.000    615983.8481   3596818.3177   5213663.3168   5  14   2.9306   5.4040   6.3118   1.2518   4.4564   1.9090   0.00    0.0
2020/08/06 04:29:42.000    615983.7720   3596818.4479   5213663.4560   5  14   2.9307   5.4088   6.3129   1.2524   4.4605   1.9097   0.00    0.0
2020/08/06 04:29:52.000    615983.7230   3596818.4938   5213663.4878   5  14   2.9307   5.4135   6.3140   1.2530   4.4646   1.9103   0.00    0.0
2020/08/06 04:30:02.000    615983.6680   3596818.4790   5213663.4248   5  13   3.2395   5.8367   7.0746  -1.1931   5.1855  -0.8659   0.00    0.0
2020/08/06 04:30:12.000    615983.6129   3596818.5129   5213663.4202   5  13   3.2395   5.8397   7.0695  -1.1906   5.1851  -0.8542   0.00    0.0
2020/08/06 04:30:22.000    615983.8857   3596818.0013   5213662.7084   5  14   2.9308   5.4276   6.3171   1.2547   4.4765   1.9120   0.00    0.0
2020/08/06 04:30:32.000    615983.8692   3596817.8420   5213662.7198   5  14   2.9309   5.4323   6.3180   1.2552   4.4804   1.9126   0.00    0.0
2020/08/06 04:30:42.000    615983.8534   3596817.7610   5213662.7150   5  14   2.9309   5.4369   6.3188   1.2557   4.4842   1.9131   0.00    0.0
2020/08/06 04:30:52.000    615983.7690   3596817.7538   5213662.8173   5  14   2.9310   5.4416   6.3197   1.2562   4.4880   1.9136   0.00    0.0
2020/08/06 04:31:02.000    615983.7182   3596817.7304   5213662.9511   5  14   2.9310   5.4462   6.3205   1.2566   4.4918   1.9140   0.00    0.0
2020/08/06 04:31:12.000    615983.5180   3596818.0799   5213663.3939   5  13   3.2401   5.8575   7.0384  -1.1754   5.1814  -0.7807   0.00    0.0
2020/08/06 04:31:22.000    615983.4550   3596818.1841   5213663.4695   5  13   3.2402   5.8603   7.0331  -1.1728   5.1806  -0.7679   0.00    0.0
2020/08/06 04:31:32.000    615983.4488   3596818.2818   5213663.4720   5  13   3.2403   5.8632   7.0277  -1.1703   5.1798  -0.7549   0.00    0.0
2020/08/06 04:31:42.000    615983.4842   3596818.3879   5213663.3649   5  13   3.2404   5.8659   7.0223  -1.1677   5.1789  -0.7417   0.00    0.0
2020/08/06 04:31:52.000    615983.5368   3596818.3487   5213663.2796   5  14   2.9313   5.4689   6.3238   1.2585   4.5097   1.9160   0.00    0.0
2020/08/06 04:32:02.000    615983.5401   3596818.3713   5213663.3590   5  14   2.9313   5.4734   6.3243   1.2588   4.5132   1.9163   0.00    0.0
2020/08/06 04:32:12.000    615983.4799   3596818.4089   5213663.3664   5  13   3.2408   5.8741   7.0060  -1.1600   5.1759  -0.7009   0.00    0.0
2020/08/06 04:32:22.000    615983.4986   3596818.3487   5213663.3775   5  13   3.2409   5.8767   7.0005  -1.1575   5.1748  -0.6868   0.00    0.0
2020/08/06 04:32:32.000    615983.5216   3596818.2645   5213663.3949   5  13   3.2410   5.8793   6.9949  -1.1549   5.1737  -0.6725   0.00    0.0
2020/08/06 04:32:42.000    615983.5190   3596818.2134   5213663.3459   5  13   3.2411   5.8819   6.9894  -1.1523   5.1725  -0.6579   0.00    0.0
2020/08/06 04:32:52.000    615983.5673   3596818.1610   5213663.2228   5  14   2.9328   5.4971   6.3291   1.2552   4.5324   1.9133   0.00    0.0
2020/08/06 04:33:02.000    615983.5739   3596818.2613   5213663.4910   5  15   2.9312   5.4925   5.9491   1.2423   4.4598   1.8550   0.00    0.0
2020/08/06 04:33:12.000    615983.5377   3596818.2789   5213663.4789   5  14   3.0732   5.6042   6.2216   1.5969   4.6802   2.2619   0.00    0.0
2020/08/06 04:33:22.000    615983.5066   3596818.3495   5213663.5880   5  14   3.0734   5.6096   6.2258   1.5984   4.6859   2.2636   0.00    0.0
2020/08/06 04:33:32.000    615983.5125   3596818.4180   5213663.7198   5  14   3.0736   5.6151   6.2300   1.6000   4.6914   2.2653   0.00    0.0
2020/08/06 04:33:42.000    615983.5544   3596818.4927   5213663.9502   5  14   3.0739   5.6205   6.2341   1.6015   4.6970   2.2670   0.00    0.0
2020/08/06 04:33:52.000    615983.6024   3596818.4903   5213664.0535   5  14   3.0741   5.6258   6.2382   1.6030   4.7024   2.2687   0.00    0.0
2020/08/06 04:34:02.000    615983.5541   3596818.6543   5213664.4069   5  13   3.3749   5.9709   6.7184  -0.4361   5.2054   1.3019   0.00    0.0
2020/08/06 04:34:12.000    615983.6028   3596818.7059   5213664.5962   5  13   3.3752   5.9747   6.7183  -0.4250   5.2074   1.3100   0.00    0.0
2020/08/06 04:34:22.000    615983.8343   3596818.4795   5213664.4877   5  14   3.0747   5.6418   6.2501   1.6073   4.7186   2.2735   0.00    0.0
2020/08/06 04:34:32.000    615983.8056   3596818.4849   5213664.6345   5  14   3.0749   5.6470   6.2540   1.6086   4.7238   2.2751   0.00    0.0
2020/08/06 04:34:42.000    615983.8343   3596818.4280   5213664.7405   5  14   3.0751   5.6523   6.2578   1.6100   4.7291   2.2766   0.00    0.0
2020/08/06 04:34:52.000    615983.9034   3596818.4551   5213664.7595   5  14   3.0753   5.6575   6.2616   1.6113   4.7342   2.2781   0.00    0.0
2020/08/06 04:35:02.000    615983.9885   3596818.4728   5213664.7526   5  14   3.0755   5.6627   6.2654   1.6126   4.7394   2.2796   0.00    0.0
2020/08/06 04:35:12.000    615984.0511   3596818.5198   5213664.7035   5  14   3.0757   5.6678   6.2691   1.6139   4.7444   2.2810   0.00    0.0
2020/08/06 04:35:22.000    615983.7094   3596819.0809   5213665.2768   5  13   3.3771   6.0000   6.7165  -0.3388   5.2199   1.3650   0.00    0.0
2020/08/06 04:35:32.000    615983.6832   3596819.1358   5213665.3702   5  13   3.3773   6.0034   6.7160  -0.3247   5.2214   1.3725   0.00    0.0
2020/08/06 04:35:42.000    615983.9487   3596818.7226   5213664.8328   5  14   3.0763   5.6832   6.2800   1.6175   4.7593   2.2852   0.00    0.0
2020/08/06 04:35:52.000    615983.8933   3596818.6891   5213664.7120   5  14   3.0765   5.6882   6.2835   1.6186   4.7642   2.2866   0.00    0.0
2020/08/06 04:36:02.000    615983.8651   3596818.6346   5213664.6899   5  14   3.0767   5.6932   6.2870   1.6198   4.7690   2.2879   0.00    0.0
2020/08/06 04:36:12.000    615983.5535   3596819.0274   5213665.1646   5  13   3.3784   6.0169   6.7139  -0.2619   5.2271   1.4022   0.00    0.0
2020/08/06 04:36:22.000    615983.5132   3596818.9947   5213664.8490   5  13   3.3787   6.0201   6.7132  -0.2438   5.2284   1.4094   0.00    0.0
2020/08/06 04:36:32.000    615983.4819   3596818.9244   5213664.6295   5  13   3.3790   6.0234   6.7126  -0.2243   5.2296   1.4166   0.00    0.0
2020/08/06 04:36:42.000    615983.4336   3596818.8091   5213664.4583   5  13   3.3793   6.0266   6.7118  -0.2031   5.2307   1.4237   0.00    0.0
2020/08/06 04:36:52.000    615983.7107   3596818.3261   5213663.7745   5  14   3.0776   5.7179   6.3036   1.6249   4.7922   2.2941   0.00    0.0
2020/08/06 04:37:02.000    615983.6837   3596818.0988   5213663.6460   5  14   3.0778   5.7227   6.3068   1.6258   4.7966   2.2952   0.00    0.0
2020/08/06 04:37:12.000    615983.6164   3596818.0411   5213663.7121   5  14   3.0780   5.7275   6.3100   1.6268   4.8010   2.2963   0.00    0.0
2020/08/06 04:37:22.000    615983.3037   3596818.2572   5213664.0660   5  13   3.3804   6.0389   6.7086  -0.0735   5.2348   1.4516   0.00    0.0
2020/08/06 04:37:32.000    615983.2658   3596817.9445   5213663.9666   5  13   3.3807   6.0419   6.7077   0.0588   5.2357   1.4584   0.00    0.0
2020/08/06 04:37:42.000    615983.2206   3596817.7331   5213663.9449   5  13   3.3810   6.0449   6.7067   0.1108   5.2365   1.4652   0.00    0.0
2020/08/06 04:37:52.000    615983.6043   3596817.0501   5213663.2940   5  14   3.0786   5.7464   6.3221   1.6301   4.8181   2.3005   0.00    0.0
2020/08/06 04:38:02.000    615983.5460   3596817.1118   5213663.4201   5  14   3.0788   5.7511   6.3250   1.6308   4.8223   2.3015   0.00    0.0
2020/08/06 04:38:12.000    615983.6031   3596817.6289   5213661.0821   5  13   3.0799   5.7863   7.7627   1.6453   4.5412   2.2273   0.00    0.0
2020/08/06 04:38:22.000    615983.6134   3596817.7641   5213661.3602   5  13   3.0800   5.7896   7.7772   1.6452   4.5501   2.2309   0.00    0.0
2020/08/06 04:38:32.000    615983.6035   3596817.9505   5213661.5708   5  13   3.0800   5.7929   7.7916   1.6451   4.5590   2.2343   0.00    0.0
2020/08/06 04:38:42.000    615983.7100   3596817.9339   5213661.4991   5  13   3.0801   5.7963   7.8061   1.6450   4.5678   2.2378   0.00    0.0
2020/08/06 04:38:52.000    615983.8894   3596817.9559   5213661.3639   5  12   3.5119   6.0856   9.4945  -0.6360   5.5563  -2.0146   0.00    0.0
2020/08/06 04:39:02.000    615984.0014   3596818.0266   5213661.3648   5  12   3.5110   6.0890   9.5032  -0.6347   5.5631  -2.0056   0.00    0.0
2020/08/06 04:39:12.000    615983.9641   3596818.2503   5213661.6482   5  13   3.0804   5.8062   7.8492   1.6446   4.5943   2.2482   0.00    0.0
2020/08/06 04:39:22.000    615983.9677   3596818.3466   5213661.8794   5  13   3.0805   5.8095   7.8636   1.6444   4.6031   2.2516   0.00    0.0
2020/08/06 04:39:32.000    615983.9350   3596818.5058   5213662.1232   5  14   3.0442   5.3895   7.6909   1.9317   4.1898   2.4271   0.00    0.0
2020/08/06 04:39:42.000    615983.8497   3596818.6672   5213662.4559   5  14   3.0442   5.3926   7.7056   1.9320   4.1992   2.4304   0.00    0.0
2020/08/06 04:39:52.000    615983.9688   3596818.6202   5213662.0948   5  13   3.3785   5.5138   8.9975   1.4388   4.7916  -0.9209   0.00    0.0
2020/08/06 04:40:02.000    615983.9270   3596818.7183   5213662.3237   5  13   3.3778   5.5172   9.0078   1.4387   4.8002  -0.9049   0.00    0.0
2020/08/06 04:40:12.000    615983.9154   3596818.7769   5213662.5350   5  14   3.0441   5.4018   7.7494   1.9329   4.2273   2.4404   0.00    0.0
2020/08/06 04:40:22.000    615983.8860   3596818.9055   5213662.7020   5  14   3.0441   5.4048   7.7639   1.9332   4.2366   2.4437   0.00    0.0
2020/08/06 04:40:32.000    615983.8967   3596818.9840   5213662.9674   5  14   3.0441   5.4079   7.7785   1.9335   4.2460   2.4469   0.00    0.0
2020/08/06 04:40:42.000    615983.9688   3596818.9497   5213662.7984   5  13   3.3755   5.5315   9.0488   1.4378   4.8353  -0.8393   0.00    0.0
2020/08/06 04:40:52.000    615983.9877   3596818.8421   5213662.7464   5  13   3.3749   5.5349   9.0587   1.4378   4.8437  -0.8215   0.00    0.0
2020/08/06 04:41:02.000    615983.9742   3596818.7147   5213662.7735   5  13   3.3743   5.5383   9.0685   1.4378   4.8521  -0.8032   0.00    0.0
2020/08/06 04:41:12.000    615983.9390   3596818.6484   5213662.7689   5  13   3.3737   5.5417   9.0782   1.4378   4.8604  -0.7844   0.00    0.0
2020/08/06 04:41:22.000    615983.9499   3596818.6140   5213662.7580   5  13   3.3732   5.5451   9.0878   1.4378   4.8686  -0.7651   0.00    0.0
2020/08/06 04:41:32.000    615984.1634   3596818.4781   5213662.0085   5  14   3.0441   5.4272   7.8655   1.9344   4.3025   2.4658   0.00    0.0
2020/08/06 04:41:42.000    615984.0523   3596818.5880   5213662.2885   5  14   3.0441   5.4303   7.8798   1.9345   4.3117   2.4690   0.00    0.0
2020/08/06 04:41:52.000    615983.8196   3596818.6713   5213662.8964   5  13   3.3714   5.5551   9.1159   1.4380   4.8930  -0.7033   0.00    0.0
2020/08/06 04:42:02.000    615983.8244   3596818.7096   5213662.9182   5  13   3.3708   5.5584   9.1251   1.4381   4.9009  -0.6812   0.00    0.0
2020/08/06 04:42:12.000    615983.7743   3596818.7753   5213662.8517   5  13   3.3702   5.5617   9.1342   1.4382   4.9089  -0.6584   0.00    0.0
2020/08/06 04:42:22.000    615983.7473   3596818.7449   5213662.8314   5  13   3.3696   5.5650   9.1432   1.4384   4.9167  -0.6346   0.00    0.0
2020/08/06 04:42:32.000    615983.7500   3596818.7762   5213662.7998   5  13   3.3691   5.5683   9.1521   1.4385   4.9245  -0.6098   0.00    0.0
2020/08/06 04:42:42.000    615983.7713   3596818.8934   5213662.8400   5  13   3.3685   5.5715   9.1608   1.4387   4.9322  -0.5839   0.00    0.0
2020/08/06 04:42:52.000    615983.7456   3596818.9612   5213662.8406   5  13   3.3679   5.5748   9.1695   1.4389   4.9398  -0.5566   0.00    0.0
2020/08/06 04:43:02.000    615983.7061   3596818.9537   5213662.7833   5  13   3.3674   5.5780   9.1780   1.4390   4.9474  -0.5278   0.00    0.0
2020/08/06 04:43:12.000    615983.6283   3596818.9443   5213662.7498   5  13   3.3668   5.5812   9.1864   1.4392   4.9549  -0.4973   0.00    0.0
2020/08/06 04:43:22.000    615983.5860   3596818.9656   5213662.7243   5  13   3.3662   5.5844   9.1948   1.4395   4.9623  -0.4646   0.00    0.0
2020/08/06 04:43:32.000    615983.5690   3596818.8579   5213662.6853   5  13   3.3657   5.5876   9.2030   1.4397   4.9696  -0.4294   0.00    0.0
2020/08/06 04:43:42.000    615983.5453   3596818.8422   5213662.6486   5  13   3.3651   5.5908   9.2110   1.4399   4.9769  -0.3908   0.00    0.0
2020/08/06 04:43:52.000    615983.5009   3596818.7160   5213662.5829   5  13   3.3645   5.5939   9.2190   1.4402   4.9841  -0.3478   0.00    0.0
2020/08/06 04:44:02.000    615983.4667   3596818.6122   5213662.5295   5  13   3.3640   5.5970   9.2269   1.4405   4.9912  -0.2986   0.00    0.0
2020/08/06 04:44:12.000    615983.3967   3596818.5853   5213662.5864   5  13   3.3634   5.6002   9.2346   1.4408   4.9983  -0.2393   0.00    0.0
2020/08/06 04:44:22.000    615983.3568   3596818.5203   5213662.5048   5  13   3.3629   5.6033   9.2422   1.4411   5.0053  -0.1590   0.00    0.0
2020/08/06 04:44:32.000    615983.3036   3596818.4915   5213662.4401   5  13   3.3623   5.6063   9.2497   1.4414   5.0122   0.0825   0.00    0.0
2020/08/06 04:44:42.000    615983.2344   3596818.4521   5213662.4102   5  13   3.3618   5.6094   9.2571   1.4417   5.0190   0.1974   0.00    0.0
2020/08/06 04:44:52.000    615983.2128   3596818.4840   5213662.3537   5  13   3.3613   5.6124   9.2643   1.4420   5.0257   0.2669   0.00    0.0
2020/08/06 04:45:02.000    615983.1891   3596818.4230   5213662.3094   5  13   3.3607   5.6155   9.2714   1.4424   5.0324   0.3218   0.00    0.0
2020/08/06 04:45:12.000    615983.8702   3596817.8269   5213660.0775   5  14   3.0436   5.4955   8.1711   1.9355   4.5002   2.5289   0.00    0.0
2020/08/06 04:45:22.000    615983.9001   3596817.8329   5213660.0473   5  14   3.0435   5.4985   8.1844   1.9354   4.5089   2.5314   0.00    0.0
2020/08/06 04:45:32.000    615983.2885   3596818.3607   5213661.9198   5  13   3.3591   5.6244   9.2920   1.4435   5.0518   0.4483   0.00    0.0
2020/08/06 04:45:42.000    615983.3319   3596818.3655   5213661.8466   5  13   3.3586   5.6273   9.2986   1.4439   5.0582   0.4834   0.00    0.0
2020/08/06 04:45:52.000    615983.9352   3596817.8398   5213659.8291   5  14   3.0433   5.5077   8.2238   1.9351   4.5345   2.5389   0.00    0.0
2020/08/06 04:46:02.000    615983.9135   3596817.8859   5213659.8014   5  14   3.0433   5.5107   8.2367   1.9349   4.5429   2.5413   0.00    0.0
2020/08/06 04:46:12.000    615983.3275   3596818.5988   5213661.7045   5  13   3.3570   5.6360   9.3177   1.4452   5.0767   0.5761   0.00    0.0
2020/08/06 04:46:22.000    615983.3208   3596818.6449   5213661.7527   5  13   3.3565   5.6389   9.3238   1.4456   5.0827   0.6039   0.00    0.0
2020/08/06 04:46:32.000    615983.7689   3596818.3178   5213660.3732   5  14   3.0431   5.5198   8.2752   1.9344   4.5681   2.5484   0.00    0.0
2020/08/06 04:46:42.000    615983.6690   3596818.2672   5213660.4882   5  14   3.0430   5.5228   8.2879   1.9341   4.5764   2.5507   0.00    0.0
2020/08/06 04:46:52.000    615983.6749   3596818.2909   5213660.6026   5  14   3.0430   5.5258   8.3005   1.9339   4.5846   2.5530   0.00    0.0
2020/08/06 04:47:02.000    615983.6505   3596818.3634   5213660.7115   5  14   3.0429   5.5288   8.3130   1.9337   4.5928   2.5552   0.00    0.0
2020/08/06 04:47:12.000    615983.6020   3596818.3820   5213660.8643   5  14   3.0428   5.5318   8.3255   1.9334   4.6009   2.5574   0.00    0.0
2020/08/06 04:47:22.000    615983.5499   3596818.4307   5213661.0470   5  14   3.0428   5.5348   8.3379   1.9331   4.6090   2.5596   0.00    0.0
2020/08/06 04:47:32.000    615983.5647   3596818.3922   5213660.8986   5  14   3.0427   5.5378   8.3502   1.9328   4.6171   2.5617   0.00    0.0
2020/08/06 04:47:42.000    615983.4549   3596818.2733   5213661.1209   5  14   3.0426   5.5408   8.3624   1.9325   4.6251   2.5638   0.00    0.0
2020/08/06 04:47:52.000    615983.5159   3596818.1601   5213661.2378   5  14   3.0425   5.5437   8.3745   1.9322   4.6330   2.5659   0.00    0.0
2020/08/06 04:48:02.000    615983.4301   3596818.0350   5213661.2961   5  14   3.0425   5.5467   8.3865   1.9318   4.6409   2.5679   0.00    0.0
2020/08/06 04:48:12.000    615983.3812   3596817.9691   5213661.2936   5  14   3.0424   5.5496   8.3985   1.9314   4.6487   2.5699   0.00    0.0
2020/08/06 04:48:22.000    615983.3627   3596817.9478   5213661.2706   5  14   3.0423   5.5525   8.4103   1.9311   4.6565   2.5718   0.00    0.0
2020/08/06 04:48:32.000    615983.4108   3596817.9755   5213661.1978   5  14   3.0422   5.5554   8.4220   1.9307   4.6642   2.5737   0.00    0.0
2020/08/06 04:48:42.000    615983.3386   3596817.9297   5213661.3231   5  14   3.0421   5.5583   8.4337   1.9302   4.6719   2.5756   0.00    0.0
2020/08/06 04:48:52.000    615983.2799   3596817.8205   5213661.3011   5  14   3.0420   5.5612   8.4452   1.9298   4.6795   2.5774   0.00    0.0
2020/08/06 04:49:02.000    615983.2687   3596817.8040   5213661.2646   5  14   3.0419   5.5641   8.4567   1.9293   4.6871   2.5792   0.00    0.0
2020/08/06 04:49:12.000    615983.2643   3596817.8130   5213661.2624   5  14   3.0418   5.5670   8.4680   1.9288   4.6946   2.5810   0.00    0.0
2020/08/06 04:49:22.000    615983.2557   3596817.8558   5213661.2259   5  14   3.0417   5.5699   8.4792   1.9283   4.7020   2.5827   0.00    0.0
2020/08/06 04:49:32.000    615983.2624   3596817.8321   5213661.2465   5  14   3.0416   5.5727   8.4904   1.9278   4.7094   2.5844   0.00    0.0
2020/08/06 04:49:42.000    615983.2733   3596817.8583   5213661.2726   5  14   3.0415   5.5755   8.5014   1.9273   4.7167   2.5860   0.00    0.0
2020/08/06 04:49:52.000    615983.3014   3596817.8385   5213661.2683   5  14   3.0414   5.5784   8.5123   1.9267   4.7240   2.5876   0.00    0.0
2020/08/06 04:50:02.000    615983.3533   3596817.8686   5213661.2042   5  14   3.0413   5.5812   8.5231   1.9261   4.7311   2.5891   0.00    0.0
2020/08/06 04:50:12.000    615983.3268   3596817.9192   5213661.2417   5  13   3.3456   5.6983   9.4265   1.4575   5.1959   1.0621   0.00    0.0
2020/08/06 04:50:22.000    615983.2786   3596817.9119   5213661.3555   5  13   3.3452   5.7006   9.4292   1.4581   5.1998   1.0776   0.00    0.0
2020/08/06 04:50:32.000    615983.3370   3596817.8743   5213661.3026   5  14   3.0409   5.5896   8.5549   1.9243   4.7523   2.5935   0.00    0.0
2020/08/06 04:50:42.000    615983.3827   3596817.7337   5213661.1850   5  14   3.0408   5.5923   8.5652   1.9236   4.7592   2.5949   0.00    0.0
2020/08/06 04:50:52.000    615983.4470   3596817.6805   5213661.1544   5  14   3.0407   5.5951   8.5755   1.9229   4.7661   2.5962   0.00    0.0
2020/08/06 04:51:02.000    615983.4533   3596817.7987   5213661.3786   5  14   3.0405   5.5978   8.5856   1.9222   4.7729   2.5975   0.00    0.0
2020/08/06 04:51:12.000    615983.5057   3596817.7061   5213661.3253   5  14   3.0404   5.6005   8.5956   1.9215   4.7796   2.5987   0.00    0.0
2020/08/06 04:51:22.000    615983.4705   3596817.6190   5213661.2814   5  14   3.0403   5.6032   8.6055   1.9207   4.7862   2.5999   0.00    0.0
2020/08/06 04:51:32.000    615983.5343   3596817.5687   5213661.1538   5  14   3.0401   5.6059   8.6152   1.9200   4.7928   2.6010   0.00    0.0
2020/08/06 04:51:42.000    615983.6220   3596817.5810   5213661.0456   5  14   3.0400   5.6086   8.6248   1.9192   4.7993   2.6021   0.00    0.0
2020/08/06 04:51:52.000    615983.6476   3596817.6357   5213661.1241   5  14   3.0398   5.6112   8.6343   1.9183   4.8058   2.6032   0.00    0.0
2020/08/06 04:52:02.000    615983.5632   3596817.6298   5213661.3135   5  14   3.0397   5.6139   8.6437   1.9175   4.8121   2.6042   0.00    0.0
2020/08/06 04:52:12.000    615983.6484   3596817.5906   5213661.2278   5  14   3.0396   5.6165   8.6530   1.9166   4.8184   2.6052   0.00    0.0
2020/08/06 04:52:22.000    615983.3743   3596817.8006   5213662.0674   5  13   3.3402   5.7259   9.4507   1.4648   5.2380   1.2475   0.00    0.0
2020/08/06 04:52:32.000    615983.3890   3596817.7823   5213662.0596   5  13   3.3398   5.7278   9.4515   1.4653   5.2405   1.2605   0.00    0.0
2020/08/06 04:52:42.000    615983.6752   3596817.4291   5213661.2838   5  14   3.0391   5.6243   8.6799   1.9139   4.8368   2.6078   0.00    0.0
2020/08/06 04:52:52.000    615983.6266   3596817.3271   5213661.2834   5  14   3.0389   5.6268   8.6886   1.9129   4.8428   2.6085   0.00    0.0
2020/08/06 04:53:02.000    615983.6052   3596817.3193   5213661.2370   5  14   3.0388   5.6294   8.6972   1.9120   4.8487   2.6093   0.00    0.0
2020/08/06 04:53:12.000    615983.5473   3596817.3885   5213661.2986   5  14   3.0386   5.6319   8.7056   1.9110   4.8545   2.6099   0.00    0.0
2020/08/06 04:53:22.000    615983.4955   3596817.4540   5213661.3151   5  14   3.0384   5.6344   8.7139   1.9099   4.8602   2.6106   0.00    0.0
2020/08/06 04:53:32.000    615983.4691   3596817.5190   5213661.3766   5  14   3.0383   5.6369   8.7221   1.9089   4.8659   2.6111   0.00    0.0
2020/08/06 04:53:42.000    615983.5148   3596817.5276   5213661.2118   5  14   3.0381   5.6393   8.7301   1.9078   4.8714   2.6117   0.00    0.0
2020/08/06 04:53:52.000    615983.4270   3596817.7138   5213661.2612   5  14   3.0379   5.6418   8.7380   1.9067   4.8769   2.6121   0.00    0.0
2020/08/06 04:54:02.000    615983.3480   3596817.7473   5213661.2762   5  14   3.0377   5.6442   8.7457   1.9055   4.8823   2.6126   0.00    0.0
2020/08/06 04:54:12.000    615983.3319   3596817.6791   5213661.2145   5  14   3.0376   5.6466   8.7533   1.9044   4.8877   2.6129   0.00    0.0
2020/08/06 04:54:22.000    615983.4224   3596817.6064   5213661.1480   5  14   3.0374   5.6490   8.7607   1.9032   4.8929   2.6133   0.00    0.0
2020/08/06 04:54:32.000    615983.4387   3596817.6205   5213661.0493   5  14   3.0372   5.6514   8.7680   1.9020   4.8981   2.6135   0.00    0.0
2020/08/06 04:54:42.000    615983.4234   3596817.6645   5213661.0507   5  14   3.0370   5.6537   8.7752   1.9008   4.9031   2.6137   0.00    0.0
2020/08/06 04:54:52.000    615983.3571   3596817.7378   5213661.1133   5  14   3.0368   5.6561   8.7821   1.8995   4.9081   2.6139   0.00    0.0
2020/08/06 04:55:02.000    615983.3153   3596817.8323   5213661.2114   5  14   3.0366   5.6584   8.7890   1.8982   4.9130   2.6140   0.00    0.0
2020/08/06 04:55:12.000    615983.3420   3596817.8679   5213661.2634   5  14   3.0364   5.6607   8.7957   1.8969   4.9178   2.6141   0.00    0.0
2020/08/06 04:55:22.000    615983.3532   3596817.8159   5213661.3868   5  14   3.0362   5.6630   8.8022   1.8956   4.9225   2.6141   0.00    0.0
2020/08/06 04:55:32.000    615983.3713   3596817.8361   5213661.4807   5  14   3.0360   5.6652   8.8086   1.8942   4.9272   2.6141   0.00    0.0
2020/08/06 04:55:42.000    615983.4350   3596817.7601   5213661.4023   5  14   3.0358   5.6674   8.8148   1.8928   4.9317   2.6140   0.00    0.0
2020/08/06 04:55:52.000    615983.4811   3596817.7846   5213661.4257   5  14   3.0356   5.6696   8.8209   1.8914   4.9361   2.6139   0.00    0.0
2020/08/06 04:56:02.000    615983.4958   3596817.8038   5213661.3936   5  14   3.0354   5.6718   8.8268   1.8900   4.9405   2.6137   0.00    0.0
2020/08/06 04:56:12.000    615983.4611   3596817.7087   5213661.4314   5  14   3.0352   5.6740   8.8326   1.8885   4.9448   2.6134   0.00    0.0
2020/08/06 04:56:22.000    615983.3987   3596817.5313   5213661.3923   5  14   3.0350   5.6761   8.8382   1.8870   4.9489   2.6131   0.00    0.0
2020/08/06 04:56:32.000    615983.3307   3596817.5526   5213661.5048   5  14   3.0347   5.6783   8.8436   1.8855   4.9530   2.6128   0.00    0.0
2020/08/06 04:56:42.000    615983.2824   3596817.6537   5213661.5790   5  14   3.0345   5.6804   8.8489   1.8840   4.9570   2.6124   0.00    0.0
2020/08/06 04:56:52.000    615983.2259   3596817.6865   5213661.6014   5  14   3.0343   5.6824   8.8541   1.8824   4.9609   2.6119   0.00    0.0
2020/08/06 04:57:02.000    615983.2586   3596817.6608   5213661.5012   5  14   3.0341   5.6845   8.8590   1.8808   4.9647   2.6114   0.00    0.0
2020/08/06 04:57:12.000    615983.2439   3596817.5739   5213661.4147   5  14   3.0338   5.6865   8.8638   1.8791   4.9684   2.6108   0.00    0.0
2020/08/06 04:57:22.000    615983.2939   3596817.4904   5213661.4541   5  14   3.0336   5.6885   8.8685   1.8775   4.9720   2.6102   0.00    0.0
2020/08/06 04:57:32.000    615983.3356   3596817.3314   5213661.3476   5  14   3.0334   5.6905   8.8729   1.8758   4.9756   2.6095   0.00    0.0
2020/08/06 04:57:42.000    615983.2939   3596817.3397   5213661.5640   5  14   3.0331   5.6925   8.8772   1.8741   4.9790   2.6088   0.00    0.0
2020/08/06 04:57:52.000    615983.3075   3596817.2140   5213661.6023   5  14   3.0329   5.6944   8.8814   1.8723   4.9823   2.6080   0.00    0.0
2020/08/06 04:58:02.000    615983.2992   3596817.2057   5213661.6687   5  14   3.0327   5.6963   8.8854   1.8706   4.9855   2.6072   0.00    0.0
2020/08/06 04:58:12.000    615983.3633   3596817.2129   5213661.6673   5  14   3.0324   5.6982   8.8892   1.8688   4.9887   2.6063   0.00    0.0
2020/08/06 04:58:22.000    615983.3587   3596817.1422   5213661.6479   5  14   3.0322   5.7001   8.8928   1.8669   4.9917   2.6054   0.00    0.0
2020/08/06 04:58:32.000    615983.3293   3596817.1962   5213661.8014   5  14   3.0319   5.7020   8.8963   1.8651   4.9947   2.6044   0.00    0.0
2020/08/06 04:58:42.000    615983.2758   3596817.1594   5213661.8842   5  14   3.0317   5.7038   8.8996   1.8632   4.9975   2.6034   0.00    0.0
2020/08/06 04:58:52.000    615983.2595   3596817.1627   5213661.9628   5  14   3.0314   5.7056   8.9028   1.8613   5.0003   2.6023   0.00    0.0
2020/08/06 04:59:02.000    615983.2950   3596817.2416   5213661.9674   5  14   3.0312   5.7074   8.9057   1.8594   5.0029   2.6011   0.00    0.0
2020/08/06 04:59:12.000    615983.2776   3596817.3519   5213662.0526   5  14   3.0309   5.7091   8.9086   1.8574   5.0055   2.5999   0.00    0.0
2020/08/06 04:59:22.000    615983.2968   3596817.4224   5213662.0422   5  14   3.0307   5.7109   8.9112   1.8554   5.0079   2.5986   0.00    0.0
2020/08/06 04:59:32.000    615983.2525   3596817.5397   5213662.0169   5  14   3.0304   5.7126   8.9137   1.8534   5.0103   2.5973   0.00    0.0
2020/08/06 04:59:42.000    615983.2299   3596817.6191   5213661.9974   5  14   3.0301   5.7142   8.9160   1.8513   5.0125   2.5960   0.00    0.0
2020/08/06 04:59:52.000    615983.1881   3596817.6405   5213661.9439   5  14   3.0299   5.7159   8.9181   1.8493   5.0147   2.5945   0.00    0.0
2020/08/06 05:00:02.000    615983.9305   3596817.6248   5213662.4669   5  14   3.0296   5.7175   8.9201   1.8471   5.0167   2.5931   0.00    0.0
2020/08/06 05:00:12.000    615983.9412   3596817.7184   5213662.3756   5  14   3.0293   5.7192   8.9219   1.8450   5.0187   2.5916   0.00    0.0
2020/08/06 05:00:22.000    615983.9363   3596817.7873   5213662.4154   5  14   3.0291   5.7207   8.9235   1.8428   5.0206   2.5900   0.00    0.0
2020/08/06 05:00:32.000    615983.9655   3596817.7356   5213662.2867   5  14   3.0288   5.7223   8.9249   1.8407   5.0223   2.5883   0.00    0.0
2020/08/06 05:00:42.000    615983.9633   3596817.6885   5213662.1442   5  14   3.0285   5.7238   8.9262   1.8384   5.0240   2.5867   0.00    0.0
2020/08/06 05:00:52.000    615984.6371   3596817.6052   5213665.9501   5  15   2.8877   5.7253   7.0577   1.8408   5.0357   1.3028   0.00    0.0
2020/08/06 05:01:02.000    615984.6516   3596817.5752   5213665.8739   5  15   2.8876   5.7268   7.0644   1.8399   5.0400   1.3026   0.00    0.0
2020/08/06 05:01:12.000    615984.6883   3596817.5747   5213665.7660   5  15   2.8874   5.7282   7.0711   1.8389   5.0443   1.3024   0.00    0.0
2020/08/06 05:01:22.000    615984.7200   3596817.5637   5213665.8093   5  15   2.8872   5.7297   7.0777   1.8380   5.0485   1.3022   0.00    0.0
2020/08/06 05:01:32.000    615984.7215   3596817.6585   5213665.9282   5  15   2.8871   5.7310   7.0842   1.8370   5.0527   1.3020   0.00    0.0
2020/08/06 05:01:42.000    615984.7624   3596817.7010   5213665.8384   5  15   2.8869   5.7324   7.0906   1.8360   5.0568   1.3018   0.00    0.0
2020/08/06 05:01:52.000    615984.7625   3596817.6872   5213665.8617   5  15   2.8868   5.7337   7.0970   1.8351   5.0609   1.3016   0.00    0.0
2020/08/06 05:02:02.000    615984.7471   3596817.6637   5213665.7814   5  15   2.8866   5.7350   7.1033   1.8341   5.0648   1.3014   0.00    0.0
2020/08/06 05:02:12.000    615984.7201   3596817.5258   5213665.8491   5  15   2.8865   5.7363   7.1095   1.8331   5.0687   1.3012   0.00    0.0
2020/08/06 05:02:22.000    615984.6928   3596817.5180   5213665.9431   5  15   2.8864   5.7375   7.1157   1.8321   5.0726   1.3010   0.00    0.0
2020/08/06 05:02:32.000    615984.7541   3596817.4920   5213665.8143   5  15   2.8862   5.7387   7.1218   1.8311   5.0764   1.3008   0.00    0.0
2020/08/06 05:02:42.000    615984.7003   3596817.3258   5213665.7421   5  15   2.8861   5.7399   7.1279   1.8301   5.0801   1.3005   0.00    0.0
2020/08/06 05:02:52.000    615984.6835   3596817.2744   5213665.7273   5  15   2.8859   5.7410   7.1338   1.8291   5.0837   1.3003   0.00    0.0
2020/08/06 05:03:02.000    615984.7331   3596817.3056   5213665.8426   5  15   2.8858   5.7421   7.1397   1.8281   5.0873   1.3001   0.00    0.0
2020/08/06 05:03:12.000    615984.7135   3596817.3691   5213665.9651   5  15   2.8857   5.7432   7.1455   1.8271   5.0908   1.2998   0.00    0.0
2020/08/06 05:03:22.000    615984.6637   3596817.4095   5213666.1599   5  15   2.8855   5.7442   7.1513   1.8261   5.0942   1.2996   0.00    0.0
2020/08/06 05:03:32.000    615984.6353   3596817.2754   5213666.1459   5  15   2.8854   5.7452   7.1570   1.8251   5.0976   1.2993   0.00    0.0
2020/08/06 05:03:42.000    615984.6157   3596817.1659   5213666.1162   5  15   2.8853   5.7462   7.1626   1.8241   5.1009   1.2990   0.00    0.0
2020/08/06 05:03:52.000    615984.5860   3596817.1711   5213666.1832   5  15   2.8851   5.7471   7.1681   1.8231   5.1042   1.2988   0.00    0.0
2020/08/06 05:04:02.000    615984.6419   3596817.2078   5213666.1140   5  15   2.8850   5.7481   7.1737   1.8220   5.1073   1.2986   0.00    0.0
2020/08/06 05:04:12.000    615984.7015   3596817.2927   5213666.1379   5  15   2.8849   5.7489   7.1791   1.8210   5.1104   1.2984   0.00    0.0
2020/08/06 05:04:22.000    615984.7741   3596817.4174   5213666.1759   5  15   2.8848   5.7498   7.1845   1.8200   5.1134   1.2982   0.00    0.0
2020/08/06 05:04:32.000    615984.7735   3596817.4924   5213666.2047   5  15   2.8847   5.7506   7.1898   1.8189   5.1164   1.2980   0.00    0.0
2020/08/06 05:04:42.000    615984.7754   3596817.4495   5213666.1583   5  15   2.8846   5.7514   7.1951   1.8179   5.1193   1.2978   0.00    0.0
2020/08/06 05:04:52.000    615984.7425   3596817.2798   5213666.1268   5  15   2.8845   5.7521   7.2002   1.8168   5.1221   1.2975   0.00    0.0
2020/08/06 05:05:02.000    615984.7576   3596817.3259   5213666.2796   5  15   2.8844   5.7528   7.2053   1.8158   5.1248   1.2973   0.00    0.0
2020/08/06 05:05:12.000    615985.0263   3596818.6526   5213667.0264   5  14   3.2006   7.9074   7.6998   3.2892   6.3989   2.3303   0.00    0.0
2020/08/06 05:05:22.000    615985.0234   3596818.7880   5213667.1236   5  14   3.2002   7.9182   7.7105   3.2912   6.4115   2.3350   0.00    0.0
2020/08/06 05:05:32.000    615985.0253   3596818.8356   5213667.1763   5  14   3.1998   7.9289   7.7212   3.2932   6.4241   2.3396   0.00    0.0
2020/08/06 05:05:42.000    615985.0365   3596818.9614   5213667.2615   5  14   3.1994   7.9395   7.7318   3.2952   6.4366   2.3442   0.00    0.0
2020/08/06 05:05:52.000    615985.0321   3596819.0130   5213667.3380   5  14   3.1990   7.9502   7.7423   3.2972   6.4491   2.3488   0.00    0.0
2020/08/06 05:06:02.000    615985.0112   3596819.1547   5213667.5041   5  14   3.1987   7.9608   7.7528   3.2991   6.4614   2.3533   0.00    0.0
2020/08/06 05:06:12.000    615985.0233   3596819.1852   5213667.6013   5  14   3.1983   7.9714   7.7632   3.3011   6.4738   2.3579   0.00    0.0
2020/08/06 05:06:22.000    615984.9651   3596819.2640   5213667.6720   5  14   3.1979   7.9820   7.7736   3.3030   6.4860   2.3624   0.00    0.0
2020/08/06 05:06:32.000    615985.0080   3596819.4172   5213667.8205   5  14   3.1975   7.9925   7.7838   3.3050   6.4982   2.3668   0.00    0.0
2020/08/06 05:06:42.000    615985.0340   3596819.5632   5213667.9757   5  14   3.1972   8.0030   7.7941   3.3069   6.5104   2.3713   0.00    0.0
2020/08/06 05:06:52.000    615985.0332   3596819.5455   5213668.1296   5  14   3.1968   8.0135   7.8042   3.3088   6.5225   2.3757   0.00    0.0
2020/08/06 05:07:02.000    615984.9948   3596819.6243   5213668.2459   5  14   3.1964   8.0240   7.8143   3.3106   6.5345   2.3800   0.00    0.0
2020/08/06 05:07:12.000    615984.9619   3596819.5919   5213668.3710   5  14   3.1960   8.0344   7.8243   3.3125   6.5464   2.3844   0.00    0.0
2020/08/06 05:07:22.000    615985.0129   3596819.5544   5213668.3604   5  14   3.1957   8.0448   7.8343   3.3144   6.5583   2.3887   0.00    0.0
2020/08/06 05:07:32.000    615985.0223   3596819.6482   5213668.4333   5  14   3.1953   8.0551   7.8441   3.3162   6.5700   2.3930   0.00    0.0
2020/08/06 05:07:42.000    615985.0641   3596819.6809   5213668.4421   5  14   3.1949   8.0654   7.8539   3.3180   6.5818   2.3972   0.00    0.0
2020/08/06 05:07:52.000    615985.1482   3596819.7195   5213668.4029   5  14   3.1946   8.0757   7.8636   3.3198   6.5934   2.4014   0.00    0.0
2020/08/06 05:08:02.000    615985.1148   3596819.8329   5213668.4560   5  14   3.1942   8.0859   7.8733   3.3216   6.6050   2.4056   0.00    0.0
2020/08/06 05:08:12.000    615985.1054   3596819.8665   5213668.4542   5  14   3.1938   8.0961   7.8828   3.3234   6.6165   2.4097   0.00    0.0
2020/08/06 05:08:22.000    615985.0961   3596819.8379   5213668.4329   5  14   3.1934   8.1062   7.8923   3.3251   6.6279   2.4138   0.00    0.0
2020/08/06 05:08:32.000    615985.1129   3596819.7457   5213668.3724   5  14   3.1931   8.1163   7.9017   3.3268   6.6392   2.4179   0.00    0.0
2020/08/06 05:08:42.000    615985.1580   3596819.7184   5213668.3107   5  14   3.1927   8.1264   7.9110   3.3285   6.6505   2.4219   0.00    0.0
2020/08/06 05:08:52.000    615985.1267   3596819.5371   5213668.1974   5  14   3.1923   8.1364   7.9202   3.3302   6.6616   2.4259   0.00    0.0
2020/08/06 05:09:02.000    615985.0710   3596819.3767   5213668.1218   5  14   3.1920   8.1464   7.9294   3.3319   6.6727   2.4299   0.00    0.0
2020/08/06 05:09:12.000    615985.0664   3596819.3862   5213668.1656   5  14   3.1916   8.1563   7.9384   3.3336   6.6837   2.4338   0.00    0.0
2020/08/06 05:09:22.000    615985.1161   3596819.4929   5213668.1719   5  14   3.1912   8.1662   7.9474   3.3352   6.6946   2.4377   0.00    0.0
2020/08/06 05:09:32.000    615985.0866   3596819.6300   5213668.1679   5  14   3.1908   8.1760   7.9563   3.3368   6.7055   2.4416   0.00    0.0
2020/08/06 05:09:42.000    615985.0688   3596819.8292   5213668.3738   5  14   3.1905   8.1858   7.9651   3.3384   6.7162   2.4454   0.00    0.0
2020/08/06 05:09:52.000    615985.0253   3596819.8123   5213668.3596   5  14   3.1901   8.1956   7.9738   3.3400   6.7268   2.4492   0.00    0.0
2020/08/06 05:10:02.000    615985.0401   3596819.7059   5213668.3995   5  14   3.1897   8.2052   7.9824   3.3415   6.7374   2.4529   0.00    0.0
2020/08/06 05:10:12.000    615985.0956   3596819.6186   5213668.3630   5  14   3.1894   8.2149   7.9909   3.3430   6.7479   2.4566   0.00    0.0
2020/08/06 05:10:22.000    615985.0634   3596819.5527   5213668.4108   5  14   3.1890   8.2244   7.9993   3.3445   6.7583   2.4603   0.00    0.0
2020/08/06 05:10:32.000    615985.0756   3596819.5398   5213668.4115   5  14   3.1886   8.2340   8.0077   3.3460   6.7685   2.4639   0.00    0.0
2020/08/06 05:10:42.000    615985.0842   3596819.4704   5213668.4022   5  14   3.1882   8.2434   8.0159   3.3475   6.7787   2.4675   0.00    0.0
2020/08/06 05:10:52.000    615985.0424   3596819.4592   5213668.4300   5  14   3.1879   8.2528   8.0240   3.3489   6.7888   2.4710   0.00    0.0
2020/08/06 05:11:02.000    615984.9777   3596819.4679   5213668.4523   5  14   3.1875   8.2622   8.0320   3.3503   6.7988   2.4745   0.00    0.0
2020/08/06 05:11:12.000    615985.0105   3596819.4068   5213668.4193   5  14   3.1871   8.2715   8.0400   3.3517   6.8087   2.4780   0.00    0.0
2020/08/06 05:11:22.000    615984.9602   3596819.4260   5213668.4014   5  14   3.1867   8.2807   8.0478   3.3530   6.8185   2.4814   0.00    0.0
2020/08/06 05:11:32.000    615984.9658   3596819.3854   5213668.3174   5  14   3.1863   8.2899   8.0555   3.3544   6.8282   2.4847   0.00    0.0
2020/08/06 05:11:42.000    615984.9100   3596819.3168   5213668.3012   5  14   3.1860   8.2990   8.0631   3.3557   6.8377   2.4881   0.00    0.0
2020/08/06 05:11:52.000    615984.9515   3596819.0971   5213668.1798   5  14   3.1856   8.3080   8.0707   3.3570   6.8472   2.4913   0.00    0.0
2020/08/06 05:12:02.000    615984.9628   3596818.9438   5213668.1117   5  14   3.1852   8.3170   8.0781   3.3582   6.8566   2.4946   0.00    0.0
2020/08/06 05:12:12.000    615984.9680   3596818.7700   5213668.0145   5  14   3.1848   8.3259   8.0854   3.3595   6.8659   2.4978   0.00    0.0
2020/08/06 05:12:22.000    615984.9411   3596818.6079   5213667.8480   5  14   3.1844   8.3348   8.0926   3.3607   6.8750   2.5009   0.00    0.0
2020/08/06 05:12:32.000    615984.9250   3596818.4805   5213667.6901   5  14   3.1841   8.3435   8.0996   3.3618   6.8841   2.5040   0.00    0.0
2020/08/06 05:12:42.000    615984.9173   3596818.3374   5213667.5224   5  14   3.1837   8.3523   8.1066   3.3630   6.8930   2.5071   0.00    0.0
2020/08/06 05:12:52.000    615984.9037   3596818.2309   5213667.4814   5  14   3.1833   8.3609   8.1135   3.3641   6.9018   2.5101   0.00    0.0
2020/08/06 05:13:02.000    615984.9021   3596818.0936   5213667.4615   5  14   3.1829   8.3695   8.1202   3.3652   6.9106   2.5131   0.00    0.0
2020/08/06 05:13:12.000    615984.9290   3596818.0596   5213667.4438   5  14   3.1825   8.3780   8.1268   3.3663   6.9192   2.5160   0.00    0.0
2020/08/06 05:13:22.000    615984.9953   3596817.9736   5213667.2974   5  14   3.1821   8.3864   8.1334   3.3673   6.9276   2.5189   0.00    0.0
2020/08/06 05:13:32.000    615984.9542   3596817.9276   5213667.1945   5  14   3.1817   8.3948   8.1398   3.3683   6.9360   2.5217   0.00    0.0
2020/08/06 05:13:42.000    615984.9622   3596817.8634   5213667.0720   5  14   3.1813   8.4031   8.1460   3.3693   6.9443   2.5245   0.00    0.0
2020/08/06 05:13:52.000    615984.9964   3596817.8405   5213667.0311   5  14   3.1809   8.4113   8.1522   3.3703   6.9524   2.5272   0.00    0.0
2020/08/06 05:14:02.000    615984.9262   3596817.7953   5213666.9127   5  14   3.1805   8.4194   8.1583   3.3712   6.9604   2.5299   0.00    0.0
2020/08/06 05:14:12.000    615984.8718   3596817.7048   5213666.8274   5  14   3.1801   8.4275   8.1642   3.3721   6.9683   2.5325   0.00    0.0
2020/08/06 05:14:22.000    615984.9116   3596817.5318   5213666.7059   5  14   3.1797   8.4354   8.1700   3.3729   6.9761   2.5351   0.00    0.0
2020/08/06 05:14:32.000    615984.8989   3596817.4710   5213666.6393   5  14   3.1793   8.4433   8.1757   3.3737   6.9838   2.5377   0.00    0.0
2020/08/06 05:14:42.000    615984.8739   3596817.5038   5213666.6454   5  14   3.1789   8.4512   8.1812   3.3745   6.9913   2.5402   0.00    0.0
2020/08/06 05:14:52.000    615984.7457   3596816.9731   5213666.1672   5  15   2.9270   7.5659   7.7798   2.5893   6.2721   1.8182   0.00    0.0
2020/08/06 05:15:02.000    615984.7127   3596817.0110   5213666.0969   5  15   2.9267   7.5719   7.7848   2.5893   6.2787   1.8213   0.00    0.0
2020/08/06 05:15:12.000    615984.6587   3596817.0531   5213666.0778   5  15   2.9265   7.5778   7.7896   2.5894   6.2851   1.8243   0.00    0.0
2020/08/06 05:15:22.000    615984.6400   3596817.0814   5213666.0988   5  15   2.9263   7.5837   7.7944   2.5894   6.2915   1.8273   0.00    0.0
2020/08/06 05:15:32.000    615984.5933   3596817.0970   5213666.0504   5  15   2.9260   7.5896   7.7991   2.5895   6.2977   1.8302   0.00    0.0
2020/08/06 05:15:42.000    615984.5483   3596817.1304   5213666.1147   5  15   2.9258   7.5953   7.8037   2.5895   6.3038   1.8331   0.00    0.0
2020/08/06 05:15:52.000    615984.4936   3596817.1542   5213666.2236   5  15   2.9256   7.6010   7.8081   2.5894   6.3099   1.8360   0.00    0.0
2020/08/06 05:16:02.000    615984.4675   3596817.2502   5213666.3279   5  15   2.9253   7.6067   7.8125   2.5894   6.3158   1.8388   0.00    0.0
2020/08/06 05:16:12.000    615984.4879   3596817.4362   5213666.4912   5  15   2.9251   7.6122   7.8167   2.5893   6.3216   1.8416   0.00    0.0
2020/08/06 05:16:22.000    615984.5488   3596817.5259   5213666.6177   5  15   2.9249   7.6178   7.8209   2.5893   6.3273   1.8444   0.00    0.0
2020/08/06 05:16:32.000    615984.5553   3596817.6913   5213666.7787   5  15   2.9247   7.6232   7.8249   2.5892   6.3329   1.8471   0.00    0.0
2020/08/06 05:16:42.000    615984.5283   3596817.8697   5213666.9877   5  15   2.9245   7.6286   7.8288   2.5890   6.3384   1.8498   0.00    0.0
2020/08/06 05:16:52.000    615984.7244   3596818.2535   5213667.6869   5  14   3.0325   7.8045   8.2505   2.8294   6.6672   2.3480   0.00    0.0
2020/08/06 05:17:02.000    615984.7361   3596818.3802   5213667.8359   5  14   3.0325   7.8114   8.2577   2.8307   6.6752   2.3525   0.00    0.0
2020/08/06 05:17:12.000    615984.7721   3596818.5370   5213667.8766   5  14   3.0325   7.8182   8.2647   2.8319   6.6832   2.3569   0.00    0.0
2020/08/06 05:17:22.000    615984.7397   3596818.6889   5213668.1014   5  14   3.0325   7.8249   8.2716   2.8331   6.6910   2.3612   0.00    0.0
2020/08/06 05:17:32.000    615984.7501   3596818.7799   5213668.2152   5  14   3.0325   7.8315   8.2784   2.8342   6.6987   2.3656   0.00    0.0
2020/08/06 05:17:42.000    615984.7516   3596818.9195   5213668.3085   5  14   3.0325   7.8381   8.2851   2.8354   6.7063   2.3698   0.00    0.0
2020/08/06 05:17:52.000    615984.7345   3596818.9395   5213668.3734   5  14   3.0325   7.8446   8.2917   2.8365   6.7137   2.3741   0.00    0.0
2020/08/06 05:18:02.000    615984.7468   3596818.9743   5213668.4336   5  14   3.0325   7.8510   8.2981   2.8376   6.7211   2.3782   0.00    0.0
2020/08/06 05:18:12.000    615984.7219   3596819.0249   5213668.5451   5  14   3.0325   7.8574   8.3044   2.8386   6.7283   2.3824   0.00    0.0
2020/08/06 05:18:22.000    615984.7604   3596819.0602   5213668.7135   5  14   3.0325   7.8636   8.3106   2.8397   6.7354   2.3864   0.00    0.0
2020/08/06 05:18:32.000    615984.7746   3596819.0202   5213668.6675   5  14   3.0325   7.8698   8.3167   2.8407   6.7424   2.3905   0.00    0.0
2020/08/06 05:18:42.000    615984.7315   3596818.9897   5213668.7317   5  14   3.0325   7.8759   8.3227   2.8416   6.7493   2.3945   0.00    0.0
2020/08/06 05:18:52.000    615984.8055   3596818.9708   5213668.6907   5  14   3.0325   7.8820   8.3285   2.8426   6.7560   2.3984   0.00    0.0
2020/08/06 05:19:02.000    615984.8678   3596818.9198   5213668.7348   5  14   3.0325   7.8879   8.3342   2.8435   6.7627   2.4023   0.00    0.0
2020/08/06 05:19:12.000    615984.8971   3596818.9280   5213668.7084   5  14   3.0325   7.8938   8.3398   2.8444   6.7692   2.4061   0.00    0.0
2020/08/06 05:19:22.000    615984.9380   3596818.7907   5213668.5119   5  14   3.0325   7.8996   8.3452   2.8452   6.7755   2.4099   0.00    0.0
2020/08/06 05:19:32.000    615984.9027   3596818.6662   5213668.3675   5  14   3.0325   7.9053   8.3505   2.8460   6.7818   2.4137   0.00    0.0
