% program   : RTKLIB ver.2.4.3
% inp file  : C:\Users\Satellite\Desktop\Разработки\Soft\RouteGNSS\TestData\karg219h40.20o
% inp file  : C:\Users\Satellite\Desktop\Разработки\Soft\RouteGNSS\TestData\karg219h40.20n
% inp file  : C:\Users\Satellite\Desktop\Разработки\Soft\RouteGNSS\TestData\karg219h40.20g
% obs start : 2020/08/06 07:39:42.0 UTC (week2117 373200.0s)
% obs end   : 2020/08/06 08:39:32.0 UTC (week2117 376790.0s)
% pos mode  : Single
% elev mask : 15.0 deg
% ionos opt : Broadcast
% tropo opt : Saastamoinen
% ephemeris : Broadcast
% navi sys  : GPS GLONASS Galileo QZSS BDS NavIC SBAS
%
% (x/y/z-ecef=WGS84,Q=1:fix,2:float,3:sbas,4:dgps,5:single,6:ppp,ns=# of satellites)
%  UTC                       x-ecef(m)      y-ecef(m)      z-ecef(m)   Q  ns   sdx(m)   sdy(m)   sdz(m)  sdxy(m)  sdyz(m)  sdzx(m) age(s)  ratio
2020/08/06 07:39:42.000    615985.2686   3596816.7727   5213659.9535   5  14   4.4523   5.7108   6.7974   3.0663   4.9533   1.7065   0.00    0.0
2020/08/06 07:39:52.000    615985.3327   3596816.7852   5213659.9619   5  14   4.4503   5.7097   6.8011   3.0606   4.9542   1.6963   0.00    0.0
2020/08/06 07:40:02.000    615985.3654   3596816.8817   5213659.9942   5  14   4.4484   5.7085   6.8048   3.0549   4.9551   1.6860   0.00    0.0
2020/08/06 07:40:12.000    615985.4073   3596816.8548   5213660.0467   5  14   4.4464   5.7074   6.8085   3.0491   4.9559   1.6755   0.00    0.0
2020/08/06 07:40:22.000    615985.3676   3596816.8514   5213660.0360   5  14   4.4444   5.7062   6.8122   3.0433   4.9568   1.6650   0.00    0.0
2020/08/06 07:40:32.000    615985.3985   3596816.8741   5213659.9223   5  14   4.4425   5.7049   6.8158   3.0375   4.9576   1.6544   0.00    0.0
2020/08/06 07:40:42.000    615985.3948   3596816.8606   5213659.9170   5  14   4.4405   5.7037   6.8194   3.0317   4.9583   1.6437   0.00    0.0
2020/08/06 07:40:52.000    615985.3572   3596816.8456   5213659.9055   5  14   4.4386   5.7024   6.8230   3.0259   4.9591   1.6329   0.00    0.0
2020/08/06 07:41:02.000    615985.3407   3596816.8315   5213659.8171   5  14   4.4366   5.7011   6.8266   3.0200   4.9597   1.6220   0.00    0.0
2020/08/06 07:41:12.000    615985.3671   3596816.7814   5213659.7604   5  14   4.4347   5.6998   6.8301   3.0141   4.9604   1.6110   0.00    0.0
2020/08/06 07:41:22.000    615985.3698   3596816.7671   5213659.7195   5  14   4.4328   5.6984   6.8337   3.0083   4.9610   1.6000   0.00    0.0
2020/08/06 07:41:32.000    615985.4691   3596816.6684   5213659.5548   5  14   4.4308   5.6971   6.8372   3.0023   4.9616   1.5888   0.00    0.0
2020/08/06 07:41:42.000    615985.4428   3596816.6565   5213659.4455   5  14   4.4289   5.6957   6.8407   2.9964   4.9622   1.5775   0.00    0.0
2020/08/06 07:41:52.000    615985.4206   3596816.6423   5213659.3822   5  14   4.4270   5.6943   6.8441   2.9905   4.9627   1.5661   0.00    0.0
2020/08/06 07:42:02.000    615985.4328   3596816.6691   5213659.3492   5  14   4.4251   5.6928   6.8476   2.9845   4.9632   1.5546   0.00    0.0
2020/08/06 07:42:12.000    615985.4279   3596816.6512   5213659.3470   5  14   4.4232   5.6914   6.8510   2.9785   4.9637   1.5430   0.00    0.0
2020/08/06 07:42:22.000    615985.4368   3596816.6533   5213659.3641   5  14   4.4213   5.6899   6.8544   2.9725   4.9641   1.5312   0.00    0.0
2020/08/06 07:42:32.000    615985.3864   3596816.5578   5213659.1878   5  14   4.4194   5.6884   6.8578   2.9665   4.9645   1.5194   0.00    0.0
2020/08/06 07:42:42.000    615985.2769   3596816.5009   5213659.1693   5  14   4.4175   5.6868   6.8612   2.9605   4.9649   1.5074   0.00    0.0
2020/08/06 07:42:52.000    615985.2637   3596816.4084   5213659.0969   5  14   4.4156   5.6853   6.8645   2.9544   4.9652   1.4953   0.00    0.0
2020/08/06 07:43:02.000    615985.2110   3596816.3763   5213659.0542   5  14   4.4137   5.6837   6.8678   2.9484   4.9655   1.4831   0.00    0.0
2020/08/06 07:43:12.000    615985.1487   3596816.2232   5213658.9043   5  14   4.4118   5.6821   6.8711   2.9423   4.9657   1.4708   0.00    0.0
2020/08/06 07:43:22.000    615985.1541   3596816.1968   5213658.8933   5  14   4.4100   5.6805   6.8744   2.9362   4.9659   1.4584   0.00    0.0
2020/08/06 07:43:32.000    615985.1041   3596816.1600   5213658.9437   5  14   4.4081   5.6788   6.8777   2.9301   4.9661   1.4458   0.00    0.0
2020/08/06 07:43:42.000    615985.0740   3596816.1574   5213659.0686   5  14   4.4062   5.6772   6.8809   2.9240   4.9663   1.4331   0.00    0.0
2020/08/06 07:43:52.000    615985.0524   3596816.2300   5213659.2368   5  14   4.4044   5.6755   6.8841   2.9178   4.9664   1.4203   0.00    0.0
2020/08/06 07:44:02.000    615985.0769   3596816.2583   5213659.2726   5  14   4.4026   5.6738   6.8873   2.9117   4.9665   1.4073   0.00    0.0
2020/08/06 07:44:12.000    615985.0906   3596816.2134   5213659.3070   5  14   4.4007   5.6720   6.8904   2.9055   4.9665   1.3942   0.00    0.0
2020/08/06 07:44:22.000    615985.1622   3596816.2402   5213659.2539   5  14   4.3989   5.6703   6.8935   2.8993   4.9665   1.3810   0.00    0.0
2020/08/06 07:44:32.000    615985.2256   3596816.2069   5213659.2709   5  14   4.3971   5.6685   6.8966   2.8931   4.9665   1.3676   0.00    0.0
2020/08/06 07:44:42.000    615985.2572   3596816.3693   5213659.4917   5  14   4.3952   5.6667   6.8997   2.8869   4.9664   1.3541   0.00    0.0
2020/08/06 07:44:52.000    615985.2843   3596816.4261   5213659.5343   5  14   4.3934   5.6649   6.9027   2.8807   4.9663   1.3404   0.00    0.0
2020/08/06 07:45:02.000    615985.2906   3596816.5116   5213659.6051   5  14   4.3916   5.6630   6.9058   2.8745   4.9662   1.3265   0.00    0.0
2020/08/06 07:45:12.000    615985.2799   3596816.6081   5213659.6616   5  14   4.3898   5.6612   6.9088   2.8682   4.9660   1.3125   0.00    0.0
2020/08/06 07:45:22.000    615985.2858   3596816.6145   5213659.6032   5  14   4.3880   5.6593   6.9117   2.8619   4.9658   1.2984   0.00    0.0
2020/08/06 07:45:32.000    615985.2987   3596816.5649   5213659.5251   5  14   4.3863   5.6574   6.9147   2.8557   4.9656   1.2841   0.00    0.0
2020/08/06 07:45:42.000    615985.3512   3596816.4594   5213659.3705   5  14   4.3845   5.6554   6.9176   2.8494   4.9653   1.2696   0.00    0.0
2020/08/06 07:45:52.000    615985.4109   3596816.4605   5213659.3026   5  14   4.3827   5.6535   6.9205   2.8430   4.9650   1.2549   0.00    0.0
2020/08/06 07:46:02.000    615985.3945   3596816.4129   5213659.3446   5  14   4.3809   5.6515   6.9234   2.8367   4.9646   1.2400   0.00    0.0
2020/08/06 07:46:12.000    615985.4511   3596816.4216   5213659.3801   5  14   4.3792   5.6495   6.9262   2.8304   4.9643   1.2250   0.00    0.0
2020/08/06 07:46:22.000    615985.5132   3596816.3633   5213659.3285   5  14   4.3774   5.6475   6.9290   2.8241   4.9638   1.2097   0.00    0.0
2020/08/06 07:46:32.000    615985.4797   3596816.3367   5213659.3677   5  14   4.3757   5.6454   6.9318   2.8177   4.9634   1.1943   0.00    0.0
2020/08/06 07:46:42.000    615985.5064   3596816.4285   5213659.4869   5  14   4.3739   5.6433   6.9346   2.8113   4.9629   1.1786   0.00    0.0
2020/08/06 07:46:52.000    615985.4691   3596816.4863   5213659.5607   5  14   4.3722   5.6412   6.9373   2.8049   4.9624   1.1627   0.00    0.0
2020/08/06 07:47:02.000    615985.4791   3596816.5320   5213659.6952   5  14   4.3705   5.6391   6.9400   2.7986   4.9618   1.1466   0.00    0.0
2020/08/06 07:47:12.000    615985.4284   3596816.5808   5213659.7625   5  14   4.3688   5.6370   6.9427   2.7922   4.9612   1.1303   0.00    0.0
2020/08/06 07:47:22.000    615985.3950   3596816.5451   5213659.7226   5  14   4.3671   5.6348   6.9453   2.7857   4.9605   1.1137   0.00    0.0
2020/08/06 07:47:32.000    615985.3368   3596816.5856   5213659.7283   5  14   4.3654   5.6326   6.9479   2.7793   4.9599   1.0968   0.00    0.0
2020/08/06 07:47:42.000    615985.3727   3596816.5467   5213659.7087   5  14   4.3637   5.6304   6.9505   2.7729   4.9591   1.0797   0.00    0.0
2020/08/06 07:47:52.000    615985.3882   3596816.5804   5213659.7122   5  14   4.3620   5.6282   6.9531   2.7664   4.9584   1.0624   0.00    0.0
2020/08/06 07:48:02.000    615985.3659   3596816.6404   5213659.7820   5  14   4.3603   5.6260   6.9556   2.7600   4.9576   1.0447   0.00    0.0
2020/08/06 07:48:12.000    615985.2219   3596816.6118   5213659.7984   5  14   4.3586   5.6237   6.9581   2.7535   4.9568   1.0267   0.00    0.0
2020/08/06 07:48:22.000    615985.1493   3596816.5606   5213659.6782   5  14   4.3570   5.6214   6.9606   2.7470   4.9559   1.0084   0.00    0.0
2020/08/06 07:48:32.000    615985.1649   3596816.5400   5213659.5524   5  14   4.3553   5.6191   6.9630   2.7405   4.9550   0.9898   0.00    0.0
2020/08/06 07:48:42.000    615985.2510   3596816.5135   5213659.5088   5  14   4.3537   5.6168   6.9654   2.7341   4.9541   0.9708   0.00    0.0
2020/08/06 07:48:52.000    615985.2698   3596816.5938   5213659.4274   5  14   4.3520   5.6144   6.9678   2.7276   4.9531   0.9514   0.00    0.0
2020/08/06 07:49:02.000    615985.2981   3596816.6599   5213659.4068   5  14   4.3504   5.6120   6.9702   2.7210   4.9521   0.9317   0.00    0.0
2020/08/06 07:49:12.000    615985.3003   3596816.6970   5213659.2925   5  14   4.3488   5.6096   6.9725   2.7145   4.9510   0.9115   0.00    0.0
2020/08/06 07:49:22.000    615985.4394   3596816.6610   5213659.0618   5  14   4.3471   5.6072   6.9748   2.7080   4.9499   0.8908   0.00    0.0
2020/08/06 07:49:32.000    615985.4257   3596816.6557   5213658.9897   5  14   4.3455   5.6048   6.9770   2.7015   4.9488   0.8697   0.00    0.0
2020/08/06 07:49:42.000    615985.4086   3596816.6313   5213658.8883   5  14   4.3439   5.6023   6.9793   2.6949   4.9476   0.8481   0.00    0.0
2020/08/06 07:49:52.000    615985.3113   3596816.5192   5213658.9079   5  14   4.3423   5.5999   6.9815   2.6884   4.9464   0.8259   0.00    0.0
2020/08/06 07:50:02.000    615985.3147   3596816.3569   5213658.8803   5  14   4.3407   5.5974   6.9837   2.6818   4.9452   0.8031   0.00    0.0
2020/08/06 07:50:12.000    615985.2888   3596816.3221   5213658.9825   5  14   4.3391   5.5948   6.9858   2.6752   4.9439   0.7797   0.00    0.0
2020/08/06 07:50:22.000    615985.2708   3596816.2430   5213658.9810   5  14   4.3376   5.5923   6.9879   2.6687   4.9426   0.7556   0.00    0.0
2020/08/06 07:50:32.000    615985.2615   3596816.1806   5213658.9768   5  14   4.3360   5.5897   6.9900   2.6621   4.9412   0.7307   0.00    0.0
2020/08/06 07:50:42.000    615985.9995   3596816.8557   5213660.7761   5  13   4.7677   5.8827   8.2684   3.2723   5.7034   3.0432   0.00    0.0
2020/08/06 07:50:52.000    615985.9990   3596816.8107   5213660.7384   5  13   4.7642   5.8810   8.2768   3.2663   5.7051   3.0376   0.00    0.0
2020/08/06 07:51:02.000    615986.0014   3596816.7171   5213660.7024   5  13   4.7608   5.8793   8.2853   3.2603   5.7068   3.0320   0.00    0.0
2020/08/06 07:51:12.000    615986.0379   3596816.7450   5213660.7961   5  13   4.7573   5.8775   8.2936   3.2542   5.7084   3.0263   0.00    0.0
2020/08/06 07:51:22.000    615986.0920   3596816.7266   5213660.7859   5  13   4.7538   5.8757   8.3020   3.2482   5.7100   3.0206   0.00    0.0
2020/08/06 07:51:32.000    615986.1225   3596816.7930   5213660.8796   5  13   4.7504   5.8739   8.3103   3.2421   5.7116   3.0149   0.00    0.0
2020/08/06 07:51:42.000    615986.1349   3596816.8961   5213660.9460   5  13   4.7469   5.8720   8.3186   3.2360   5.7131   3.0091   0.00    0.0
2020/08/06 07:51:52.000    615986.1663   3596817.0061   5213660.9354   5  13   4.7435   5.8701   8.3268   3.2298   5.7145   3.0032   0.00    0.0
2020/08/06 07:52:02.000    615986.2538   3596817.1511   5213660.9302   5  13   4.7400   5.8682   8.3350   3.2237   5.7159   2.9973   0.00    0.0
2020/08/06 07:52:12.000    615986.2633   3596817.2176   5213660.8778   5  13   4.7366   5.8662   8.3432   3.2175   5.7172   2.9913   0.00    0.0
2020/08/06 07:52:22.000    615986.3043   3596817.2955   5213660.8133   5  13   4.7331   5.8643   8.3513   3.2113   5.7185   2.9853   0.00    0.0
2020/08/06 07:52:32.000    615986.3081   3596817.3526   5213660.6765   5  13   4.7297   5.8623   8.3594   3.2050   5.7198   2.9793   0.00    0.0
2020/08/06 07:52:42.000    615986.3425   3596817.4605   5213660.5882   5  13   4.7263   5.8602   8.3675   3.1988   5.7210   2.9732   0.00    0.0
2020/08/06 07:52:52.000    615986.3289   3596817.5146   5213660.3347   5  13   4.7229   5.8581   8.3755   3.1925   5.7221   2.9670   0.00    0.0
2020/08/06 07:53:02.000    615986.2864   3596817.5480   5213660.3143   5  13   4.7194   5.8560   8.3834   3.1862   5.7232   2.9608   0.00    0.0
2020/08/06 07:53:12.000    615986.2470   3596817.5662   5213660.3486   5  13   4.7160   5.8539   8.3914   3.1799   5.7242   2.9546   0.00    0.0
2020/08/06 07:53:22.000    615986.2053   3596817.5667   5213660.2976   5  13   4.7126   5.8517   8.3993   3.1736   5.7252   2.9482   0.00    0.0
2020/08/06 07:53:32.000    615986.2290   3596817.6975   5213660.4118   5  13   4.7092   5.8495   8.4071   3.1672   5.7261   2.9419   0.00    0.0
2020/08/06 07:53:42.000    615986.2669   3596817.6640   5213660.4855   5  13   4.7058   5.8473   8.4149   3.1609   5.7270   2.9355   0.00    0.0
2020/08/06 07:53:52.000    615986.3225   3596817.5499   5213660.4881   5  13   4.7024   5.8451   8.4227   3.1545   5.7278   2.9290   0.00    0.0
2020/08/06 07:54:02.000    615986.2923   3596817.4358   5213660.4350   5  13   4.6990   5.8428   8.4304   3.1481   5.7286   2.9225   0.00    0.0
2020/08/06 07:54:12.000    615986.3055   3596817.4157   5213660.5035   5  13   4.6956   5.8405   8.4381   3.1416   5.7293   2.9160   0.00    0.0
2020/08/06 07:54:22.000    615986.3093   3596817.2834   5213660.4008   5  13   4.6923   5.8381   8.4457   3.1352   5.7300   2.9094   0.00    0.0
2020/08/06 07:54:32.000    615986.3070   3596817.1258   5213660.3258   5  13   4.6889   5.8357   8.4533   3.1287   5.7306   2.9027   0.00    0.0
2020/08/06 07:54:42.000    615986.3397   3596817.0201   5213660.2968   5  13   4.6855   5.8333   8.4608   3.1222   5.7311   2.8960   0.00    0.0
2020/08/06 07:54:52.000    615986.3073   3596817.0311   5213660.3600   5  13   4.6822   5.8309   8.4683   3.1157   5.7316   2.8893   0.00    0.0
2020/08/06 07:55:02.000    615986.2935   3596816.9882   5213660.3509   5  13   4.6788   5.8284   8.4758   3.1092   5.7321   2.8825   0.00    0.0
2020/08/06 07:55:12.000    615986.2759   3596816.8999   5213660.2730   5  13   4.6754   5.8259   8.4832   3.1026   5.7324   2.8756   0.00    0.0
2020/08/06 07:55:22.000    615986.3180   3596816.7980   5213660.1364   5  13   4.6721   5.8234   8.4905   3.0960   5.7328   2.8687   0.00    0.0
2020/08/06 07:55:32.000    615986.3558   3596816.8653   5213660.2677   5  13   4.6688   5.8208   8.4978   3.0895   5.7330   2.8617   0.00    0.0
2020/08/06 07:55:42.000    615986.4344   3596816.9507   5213660.2582   5  13   4.6654   5.8182   8.5051   3.0829   5.7332   2.8547   0.00    0.0
2020/08/06 07:55:52.000    615986.4684   3596817.0019   5213660.2887   5  13   4.6621   5.8156   8.5123   3.0762   5.7334   2.8477   0.00    0.0
2020/08/06 07:56:02.000    615986.4794   3596816.9364   5213660.1343   5  13   4.6588   5.8130   8.5195   3.0696   5.7335   2.8406   0.00    0.0
2020/08/06 07:56:12.000    615986.4403   3596817.0033   5213660.1885   5  13   4.6555   5.8103   8.5266   3.0629   5.7335   2.8334   0.00    0.0
2020/08/06 07:56:22.000    615986.4822   3596817.0871   5213660.2188   5  13   4.6522   5.8076   8.5336   3.0563   5.7335   2.8262   0.00    0.0
2020/08/06 07:56:32.000    615986.4567   3596817.1316   5213660.2879   5  13   4.6489   5.8048   8.5406   3.0496   5.7334   2.8190   0.00    0.0
2020/08/06 07:56:42.000    615986.4649   3596817.1259   5213660.2136   5  13   4.6456   5.8021   8.5476   3.0429   5.7333   2.8117   0.00    0.0
2020/08/06 07:56:52.000    615986.4736   3596817.2500   5213660.3229   5  13   4.6423   5.7993   8.5545   3.0361   5.7331   2.8043   0.00    0.0
2020/08/06 07:57:02.000    615986.4614   3596817.2253   5213660.3784   5  14   4.6372   5.4883   8.5240   3.0692   5.6015   2.8154   0.00    0.0
2020/08/06 07:57:12.000    615986.4217   3596817.2239   5213660.4642   5  14   4.6339   5.4867   8.5313   3.0637   5.6024   2.8085   0.00    0.0
2020/08/06 07:57:22.000    615986.3914   3596817.1878   5213660.4208   5  14   4.6305   5.4850   8.5386   3.0582   5.6032   2.8015   0.00    0.0
2020/08/06 07:57:32.000    615986.3438   3596817.1958   5213660.4722   5  14   4.6271   5.4833   8.5458   3.0526   5.6039   2.7944   0.00    0.0
2020/08/06 07:57:42.000    615986.2554   3596817.1105   5213660.4283   5  14   4.6237   5.4816   8.5529   3.0471   5.6045   2.7873   0.00    0.0
2020/08/06 07:57:52.000    615986.1928   3596817.0601   5213660.3444   5  14   4.6204   5.4799   8.5600   3.0415   5.6051   2.7801   0.00    0.0
2020/08/06 07:58:02.000    615986.1213   3596816.9912   5213660.2544   5  14   4.6170   5.4781   8.5670   3.0359   5.6057   2.7729   0.00    0.0
2020/08/06 07:58:12.000    615986.0315   3596816.9631   5213660.2865   5  14   4.6137   5.4763   8.5740   3.0303   5.6062   2.7656   0.00    0.0
2020/08/06 07:58:22.000    615986.0319   3596816.9053   5213660.2050   5  14   4.6103   5.4744   8.5809   3.0247   5.6066   2.7583   0.00    0.0
2020/08/06 07:58:32.000    615986.1385   3596816.8689   5213660.2574   5  13   5.1321   5.7198   9.1037   3.5884   6.0385   3.7947   0.00    0.0
2020/08/06 07:58:42.000    615986.1194   3596816.7971   5213660.2634   5  13   5.1278   5.7186   9.1138   3.5836   6.0409   3.7915   0.00    0.0
2020/08/06 07:58:52.000    615986.1674   3596816.7599   5213660.2622   5  13   5.1235   5.7174   9.1238   3.5788   6.0431   3.7882   0.00    0.0
2020/08/06 07:59:02.000    615986.2160   3596816.6862   5213660.1358   5  13   5.1192   5.7161   9.1338   3.5740   6.0453   3.7848   0.00    0.0
2020/08/06 07:59:12.000    615986.1973   3596816.6265   5213660.0478   5  13   5.1150   5.7147   9.1437   3.5692   6.0474   3.7814   0.00    0.0
2020/08/06 07:59:22.000    615986.2742   3596816.5435   5213660.0574   5  13   5.1107   5.7134   9.1535   3.5643   6.0495   3.7780   0.00    0.0
2020/08/06 07:59:32.000    615986.3253   3596816.3877   5213659.8608   5  13   5.1064   5.7120   9.1633   3.5594   6.0515   3.7745   0.00    0.0
2020/08/06 07:59:42.000    615986.3345   3596816.4232   5213659.8440   5  13   5.1022   5.7105   9.1730   3.5545   6.0534   3.7709   0.00    0.0
2020/08/06 07:59:52.000    615986.3651   3596816.3802   5213659.7993   5  13   5.0979   5.7090   9.1826   3.5495   6.0552   3.7673   0.00    0.0
2020/08/06 08:00:02.000    615986.0625   3596815.9893   5213659.5551   5  13   5.0936   5.7075   9.1922   3.5445   6.0570   3.7637   0.00    0.0
2020/08/06 08:00:12.000    615986.1506   3596815.9900   5213659.5305   5  13   5.0893   5.7059   9.2017   3.5395   6.0587   3.7599   0.00    0.0
2020/08/06 08:00:22.000    615986.2253   3596816.0644   5213659.5563   5  13   5.0850   5.7043   9.2111   3.5345   6.0603   3.7562   0.00    0.0
2020/08/06 08:00:32.000    615986.2167   3596816.0676   5213659.4691   5  13   5.0807   5.7026   9.2205   3.5294   6.0618   3.7524   0.00    0.0
2020/08/06 08:00:42.000    615986.2077   3596816.1501   5213659.4894   5  13   5.0765   5.7009   9.2298   3.5243   6.0633   3.7485   0.00    0.0
2020/08/06 08:00:52.000    615986.1385   3596816.2090   5213659.4447   5  13   5.0722   5.6992   9.2390   3.5192   6.0647   3.7446   0.00    0.0
2020/08/06 08:01:02.000    615986.1431   3596816.2688   5213659.4494   5  13   5.0679   5.6974   9.2481   3.5141   6.0660   3.7406   0.00    0.0
2020/08/06 08:01:12.000    615986.1378   3596816.2160   5213659.5364   5  13   5.0636   5.6955   9.2572   3.5089   6.0673   3.7366   0.00    0.0
2020/08/06 08:01:22.000    615986.1134   3596816.2573   5213659.5863   5  13   5.0593   5.6937   9.2662   3.5037   6.0684   3.7325   0.00    0.0
2020/08/06 08:01:32.000    615986.1440   3596816.3729   5213659.6641   5  13   5.0550   5.6918   9.2752   3.4985   6.0695   3.7283   0.00    0.0
2020/08/06 08:01:42.000    615986.1134   3596816.4462   5213659.6522   5  13   5.0507   5.6898   9.2840   3.4932   6.0706   3.7241   0.00    0.0
2020/08/06 08:01:52.000    615986.0329   3596816.4459   5213659.6977   5  13   5.0465   5.6878   9.2928   3.4879   6.0715   3.7199   0.00    0.0
2020/08/06 08:02:02.000    615985.9863   3596816.3824   5213659.6768   5  13   5.0422   5.6858   9.3015   3.4826   6.0724   3.7156   0.00    0.0
2020/08/06 08:02:12.000    615985.7303   3596816.5260   5213660.2727   5  14   4.9289   5.6505   8.8978   3.5681   5.9331   4.0779   0.00    0.0
2020/08/06 08:02:22.000    615985.6996   3596816.5222   5213660.2705   5  14   4.9244   5.6484   8.9062   3.5629   5.9338   4.0743   0.00    0.0
2020/08/06 08:02:32.000    615985.6840   3596816.5280   5213660.3295   5  14   4.9200   5.6462   8.9145   3.5576   5.9344   4.0706   0.00    0.0
2020/08/06 08:02:42.000    615985.7330   3596816.5466   5213660.4336   5  14   4.9155   5.6441   8.9228   3.5523   5.9350   4.0669   0.00    0.0
2020/08/06 08:02:52.000    615985.8376   3596816.6569   5213660.5684   5  14   4.9110   5.6419   8.9310   3.5470   5.9355   4.0631   0.00    0.0
2020/08/06 08:03:02.000    615985.9362   3596816.7501   5213660.6081   5  14   4.9066   5.6396   8.9391   3.5417   5.9360   4.0593   0.00    0.0
2020/08/06 08:03:12.000    615985.9063   3596816.7315   5213660.4589   5  14   4.9021   5.6373   8.9471   3.5363   5.9364   4.0554   0.00    0.0
2020/08/06 08:03:22.000    615985.9831   3596816.7364   5213660.4975   5  14   4.8976   5.6350   8.9551   3.5309   5.9367   4.0515   0.00    0.0
2020/08/06 08:03:32.000    615985.9720   3596816.7469   5213660.4116   5  14   4.8932   5.6327   8.9631   3.5254   5.9369   4.0475   0.00    0.0
2020/08/06 08:03:42.000    615986.0018   3596816.8234   5213660.4325   5  14   4.8887   5.6303   8.9709   3.5200   5.9371   4.0435   0.00    0.0
2020/08/06 08:03:52.000    615986.0119   3596816.8807   5213660.3658   5  14   4.8842   5.6278   8.9787   3.5145   5.9372   4.0394   0.00    0.0
2020/08/06 08:04:02.000    615986.0580   3596816.9770   5213660.3293   5  14   4.8797   5.6253   8.9864   3.5090   5.9372   4.0353   0.00    0.0
2020/08/06 08:04:12.000    615986.1194   3596817.0465   5213660.3472   5  14   4.8753   5.6228   8.9940   3.5034   5.9371   4.0311   0.00    0.0
2020/08/06 08:04:22.000    615986.1318   3596817.0954   5213660.2831   5  14   4.8708   5.6203   9.0016   3.4978   5.9370   4.0269   0.00    0.0
2020/08/06 08:04:32.000    615986.2147   3596817.1999   5213660.3090   5  14   4.8663   5.6177   9.0091   3.4922   5.9368   4.0226   0.00    0.0
2020/08/06 08:04:42.000    615986.2101   3596817.2729   5213660.4006   5  14   4.8619   5.6151   9.0166   3.4866   5.9365   4.0182   0.00    0.0
2020/08/06 08:04:52.000    615986.1578   3596817.3807   5213660.5463   5  14   4.8574   5.6124   9.0239   3.4810   5.9362   4.0139   0.00    0.0
2020/08/06 08:05:02.000    615986.0759   3596817.3927   5213660.5707   5  14   4.8529   5.6097   9.0312   3.4753   5.9357   4.0094   0.00    0.0
2020/08/06 08:05:12.000    615986.0753   3596817.4466   5213660.6837   5  14   4.8485   5.6069   9.0384   3.4696   5.9353   4.0049   0.00    0.0
2020/08/06 08:05:22.000    615986.0816   3596817.5118   5213660.8116   5  14   4.8440   5.6041   9.0455   3.4638   5.9347   4.0004   0.00    0.0
2020/08/06 08:05:32.000    615986.0050   3596817.5164   5213660.8322   5  14   4.8396   5.6013   9.0526   3.4581   5.9340   3.9958   0.00    0.0
2020/08/06 08:05:42.000    615985.9371   3596817.4976   5213660.8779   5  14   4.8351   5.5985   9.0596   3.4523   5.9333   3.9912   0.00    0.0
2020/08/06 08:05:52.000    615985.9265   3596817.6076   5213661.0428   5  14   4.8307   5.5956   9.0665   3.4465   5.9325   3.9865   0.00    0.0
2020/08/06 08:06:02.000    615985.9171   3596817.6284   5213661.0952   5  14   4.8262   5.5926   9.0733   3.4407   5.9316   3.9818   0.00    0.0
2020/08/06 08:06:12.000    615985.9033   3596817.6000   5213661.1023   5  14   4.8217   5.5897   9.0801   3.4348   5.9307   3.9770   0.00    0.0
2020/08/06 08:06:22.000    615985.8370   3596817.4866   5213660.9874   5  14   4.8173   5.5867   9.0868   3.4289   5.9297   3.9722   0.00    0.0
2020/08/06 08:06:32.000    615985.7848   3596817.5089   5213660.9647   5  14   4.8129   5.5836   9.0934   3.4230   5.9286   3.9673   0.00    0.0
2020/08/06 08:06:42.000    615985.7652   3596817.5430   5213660.9144   5  14   4.8084   5.5805   9.0999   3.4171   5.9274   3.9624   0.00    0.0
2020/08/06 08:06:52.000    615985.7775   3596817.4931   5213660.8753   5  14   4.8040   5.5774   9.1063   3.4112   5.9261   3.9574   0.00    0.0
2020/08/06 08:07:02.000    615985.8038   3596817.4265   5213660.7678   5  14   4.7995   5.5742   9.1127   3.4052   5.9248   3.9524   0.00    0.0
2020/08/06 08:07:12.000    615985.8127   3596817.2864   5213660.5804   5  14   4.7951   5.5710   9.1190   3.3992   5.9234   3.9473   0.00    0.0
2020/08/06 08:07:22.000    615985.8888   3596817.2738   5213660.5123   5  14   4.7907   5.5678   9.1252   3.3931   5.9219   3.9422   0.00    0.0
2020/08/06 08:07:32.000    615985.9146   3596817.1770   5213660.4462   5  14   4.7863   5.5645   9.1313   3.3871   5.9204   3.9370   0.00    0.0
2020/08/06 08:07:42.000    615985.9638   3596817.1428   5213660.4591   5  14   4.7818   5.5612   9.1373   3.3810   5.9187   3.9318   0.00    0.0
2020/08/06 08:07:52.000    615985.9930   3596817.0443   5213660.3411   5  14   4.7774   5.5579   9.1433   3.3749   5.9170   3.9265   0.00    0.0
2020/08/06 08:08:02.000    615986.0080   3596816.9581   5213660.2403   5  14   4.7730   5.5545   9.1491   3.3688   5.9152   3.9212   0.00    0.0
2020/08/06 08:08:12.000    615986.0383   3596817.0112   5213660.2379   5  14   4.7686   5.5511   9.1549   3.3627   5.9133   3.9158   0.00    0.0
2020/08/06 08:08:22.000    615985.9716   3596816.9741   5213660.2265   5  14   4.7642   5.5476   9.1606   3.3565   5.9114   3.9104   0.00    0.0
2020/08/06 08:08:32.000    615986.0162   3596816.8478   5213660.0614   5  14   4.7598   5.5441   9.1662   3.3503   5.9093   3.9050   0.00    0.0
2020/08/06 08:08:42.000    615986.0036   3596816.7987   5213660.0077   5  14   4.7554   5.5406   9.1717   3.3441   5.9072   3.8995   0.00    0.0
2020/08/06 08:08:52.000    615986.0175   3596816.8128   5213659.9882   5  14   4.7510   5.5370   9.1772   3.3379   5.9050   3.8939   0.00    0.0
2020/08/06 08:09:02.000    615986.0095   3596816.7698   5213659.8443   5  14   4.7466   5.5334   9.1825   3.3317   5.9027   3.8883   0.00    0.0
2020/08/06 08:09:12.000    615985.9536   3596816.7492   5213659.6272   5  14   4.7422   5.5298   9.1878   3.3254   5.9004   3.8826   0.00    0.0
2020/08/06 08:09:22.000    615985.9868   3596816.7231   5213659.6092   5  14   4.7379   5.5261   9.1929   3.3191   5.8979   3.8770   0.00    0.0
2020/08/06 08:09:32.000    615985.9763   3596816.7799   5213659.6713   5  14   4.7335   5.5224   9.1980   3.3128   5.8954   3.8712   0.00    0.0
2020/08/06 08:09:42.000    615985.8928   3596816.8580   5213659.7052   5  14   4.7291   5.5186   9.2030   3.3064   5.8928   3.8654   0.00    0.0
2020/08/06 08:09:52.000    615985.8875   3596816.8496   5213659.6074   5  14   4.7248   5.5149   9.2079   3.3001   5.8902   3.8596   0.00    0.0
2020/08/06 08:10:02.000    615985.8601   3596816.7949   5213659.4367   5  14   4.7204   5.5110   9.2127   3.2937   5.8874   3.8537   0.00    0.0
2020/08/06 08:10:12.000    615985.8417   3596816.7830   5213659.3976   5  14   4.7161   5.5072   9.2175   3.2873   5.8846   3.8478   0.00    0.0
2020/08/06 08:10:22.000    615985.8990   3596816.8331   5213659.4148   5  14   4.7118   5.5033   9.2221   3.2809   5.8817   3.8418   0.00    0.0
2020/08/06 08:10:32.000    615985.8913   3596816.8805   5213659.3619   5  14   4.7074   5.4994   9.2266   3.2745   5.8787   3.8358   0.00    0.0
2020/08/06 08:10:42.000    615985.8375   3596816.8704   5213659.2842   5  14   4.7031   5.4954   9.2311   3.2680   5.8756   3.8297   0.00    0.0
2020/08/06 08:10:52.000    615985.7691   3596816.9325   5213659.2412   5  14   4.6988   5.4915   9.2355   3.2616   5.8724   3.8236   0.00    0.0
2020/08/06 08:11:02.000    615985.8100   3596817.0802   5213659.4411   5  14   4.6945   5.4874   9.2397   3.2551   5.8692   3.8174   0.00    0.0
2020/08/06 08:11:12.000    615985.8507   3596817.2046   5213659.4804   5  14   4.6902   5.4834   9.2439   3.2486   5.8659   3.8112   0.00    0.0
2020/08/06 08:11:22.000    615985.7926   3596817.2475   5213659.5326   5  14   4.6859   5.4793   9.2480   3.2421   5.8625   3.8050   0.00    0.0
2020/08/06 08:11:32.000    615985.7602   3596817.2907   5213659.5456   5  14   4.6816   5.4752   9.2520   3.2355   5.8590   3.7987   0.00    0.0
2020/08/06 08:11:42.000    615985.8106   3596817.4528   5213659.7091   5  14   4.6773   5.4710   9.2559   3.2290   5.8554   3.7923   0.00    0.0
2020/08/06 08:11:52.000    615985.7959   3596817.6046   5213659.6842   5  14   4.6731   5.4668   9.2597   3.2224   5.8518   3.7859   0.00    0.0
2020/08/06 08:12:02.000    615985.8616   3596817.6338   5213659.6805   5  14   4.6688   5.4626   9.2634   3.2158   5.8480   3.7795   0.00    0.0
2020/08/06 08:12:12.000    615985.7999   3596817.6002   5213659.4874   5  14   4.6646   5.4584   9.2670   3.2092   5.8442   3.7730   0.00    0.0
2020/08/06 08:12:22.000    615985.7897   3596817.5773   5213659.5464   5  14   4.6603   5.4541   9.2705   3.2026   5.8403   3.7665   0.00    0.0
2020/08/06 08:12:32.000    615985.7559   3596817.6092   5213659.5667   5  14   4.6561   5.4498   9.2739   3.1959   5.8364   3.7600   0.00    0.0
2020/08/06 08:12:42.000    615985.7689   3596817.5757   5213659.5485   5  14   4.6519   5.4454   9.2772   3.1893   5.8323   3.7534   0.00    0.0
2020/08/06 08:12:52.000    615985.7847   3596817.5099   5213659.5220   5  14   4.6476   5.4411   9.2804   3.1826   5.8282   3.7467   0.00    0.0
2020/08/06 08:13:02.000    615985.8431   3596817.5093   5213659.5798   5  14   4.6434   5.4366   9.2836   3.1759   5.8240   3.7400   0.00    0.0
2020/08/06 08:13:12.000    615985.9322   3596817.4849   5213659.6286   5  14   4.6392   5.4322   9.2866   3.1692   5.8197   3.7333   0.00    0.0
2020/08/06 08:13:22.000    615985.9888   3596817.3774   5213659.6360   5  14   4.6350   5.4277   9.2895   3.1625   5.8153   3.7266   0.00    0.0
2020/08/06 08:13:32.000    615985.9883   3596817.2569   5213659.5886   5  14   4.6309   5.4232   9.2924   3.1558   5.8108   3.7197   0.00    0.0
2020/08/06 08:13:42.000    615986.0126   3596817.1429   5213659.5689   5  14   4.6267   5.4187   9.2951   3.1490   5.8063   3.7129   0.00    0.0
2020/08/06 08:13:52.000    615985.9499   3596816.9701   5213659.5071   5  14   4.6225   5.4142   9.2977   3.1423   5.8017   3.7060   0.00    0.0
2020/08/06 08:14:02.000    615985.9456   3596816.9553   5213659.5439   5  14   4.6184   5.4096   9.3003   3.1355   5.7970   3.6991   0.00    0.0
2020/08/06 08:14:12.000    615985.9857   3596816.9839   5213659.6372   5  14   4.6142   5.4050   9.3027   3.1287   5.7922   3.6921   0.00    0.0
2020/08/06 08:14:22.000    615986.0303   3596817.0820   5213659.7341   5  14   4.6101   5.4003   9.3051   3.1219   5.7873   3.6851   0.00    0.0
2020/08/06 08:14:32.000    615986.1938   3596817.1493   5213659.8856   5  14   4.6060   5.3957   9.3073   3.1151   5.7824   3.6780   0.00    0.0
2020/08/06 08:14:42.000    615986.2210   3596817.1996   5213659.9585   5  14   4.6019   5.3910   9.3094   3.1083   5.7773   3.6709   0.00    0.0
2020/08/06 08:14:52.000    615986.1605   3596817.2505   5213659.9820   5  14   4.5978   5.3862   9.3115   3.1014   5.7722   3.6638   0.00    0.0
2020/08/06 08:15:02.000    615986.1485   3596817.2567   5213660.0152   5  14   4.5937   5.3815   9.3134   3.0946   5.7670   3.6567   0.00    0.0
2020/08/06 08:15:12.000    615986.0311   3596817.3244   5213660.0751   5  14   4.5896   5.3767   9.3153   3.0877   5.7618   3.6494   0.00    0.0
2020/08/06 08:15:22.000    615986.0087   3596817.4077   5213660.1622   5  14   4.5856   5.3719   9.3170   3.0809   5.7564   3.6422   0.00    0.0
2020/08/06 08:15:32.000    615985.9421   3596817.4543   5213660.1825   5  14   4.5815   5.3671   9.3187   3.0740   5.7510   3.6349   0.00    0.0
2020/08/06 08:15:42.000    615985.9233   3596817.5765   5213660.2897   5  14   4.5775   5.3622   9.3202   3.0671   5.7455   3.6276   0.00    0.0
2020/08/06 08:15:52.000    615985.9688   3596817.6653   5213660.4657   5  14   4.5734   5.3573   9.3216   3.0602   5.7399   3.6202   0.00    0.0
2020/08/06 08:16:02.000    615985.8733   3596817.6179   5213660.3244   5  14   4.5694   5.3524   9.3230   3.0533   5.7342   3.6129   0.00    0.0
2020/08/06 08:16:12.000    615985.8045   3596817.5593   5213660.2094   5  14   4.5654   5.3475   9.3242   3.0464   5.7285   3.6054   0.00    0.0
2020/08/06 08:16:22.000    615985.7572   3596817.5598   5213660.1710   5  14   4.5614   5.3425   9.3254   3.0395   5.7227   3.5980   0.00    0.0
2020/08/06 08:16:32.000    615985.7246   3596817.6619   5213660.1723   5  14   4.5574   5.3375   9.3264   3.0325   5.7167   3.5905   0.00    0.0
2020/08/06 08:16:42.000    615985.7631   3596817.6886   5213660.1566   5  14   4.5534   5.3325   9.3274   3.0256   5.7108   3.5829   0.00    0.0
2020/08/06 08:16:52.000    615985.8241   3596817.7770   5213660.2564   5  14   4.5495   5.3275   9.3282   3.0186   5.7047   3.5754   0.00    0.0
2020/08/06 08:17:02.000    615985.7878   3596817.6824   5213660.1041   5  14   4.5455   5.3225   9.3289   3.0117   5.6986   3.5678   0.00    0.0
2020/08/06 08:17:12.000    615985.7949   3596817.7392   5213660.0925   5  14   4.5416   5.3174   9.3296   3.0047   5.6923   3.5601   0.00    0.0
2020/08/06 08:17:22.000    615985.7498   3596817.7615   5213660.0121   5  14   4.5377   5.3123   9.3301   2.9977   5.6860   3.5525   0.00    0.0
2020/08/06 08:17:32.000    615985.7565   3596817.7270   5213659.9367   5  14   4.5338   5.3072   9.3305   2.9907   5.6796   3.5448   0.00    0.0
2020/08/06 08:17:42.000    615985.7587   3596817.6179   5213659.8396   5  14   4.5299   5.3020   9.3309   2.9837   5.6732   3.5370   0.00    0.0
2020/08/06 08:17:52.000    615985.6889   3596817.5700   5213659.6788   5  14   4.5260   5.2969   9.3311   2.9767   5.6667   3.5293   0.00    0.0
2020/08/06 08:18:02.000    615985.7229   3596817.5530   5213659.6534   5  14   4.5221   5.2917   9.3312   2.9697   5.6600   3.5215   0.00    0.0
2020/08/06 08:18:12.000    615985.7131   3596817.4881   5213659.5645   5  14   4.5182   5.2865   9.3313   2.9627   5.6534   3.5136   0.00    0.0
2020/08/06 08:18:22.000    615985.7357   3596817.4186   5213659.4308   5  14   4.5144   5.2813   9.3312   2.9557   5.6466   3.5058   0.00    0.0
2020/08/06 08:18:32.000    615985.6530   3596817.3091   5213659.1634   5  14   4.5106   5.2760   9.3310   2.9487   5.6397   3.4979   0.00    0.0
2020/08/06 08:18:42.000    615985.6865   3596817.2709   5213659.1252   5  14   4.5067   5.2708   9.3307   2.9417   5.6328   3.4900   0.00    0.0
2020/08/06 08:18:52.000    615985.6846   3596817.2736   5213659.1028   5  14   4.5029   5.2655   9.3304   2.9347   5.6258   3.4820   0.00    0.0
2020/08/06 08:19:02.000    615985.7100   3596817.2002   5213659.0253   5  14   4.4991   5.2602   9.3299   2.9276   5.6188   3.4740   0.00    0.0
2020/08/06 08:19:12.000    615985.7356   3596817.1868   5213659.0141   5  14   4.4954   5.2549   9.3293   2.9206   5.6116   3.4660   0.00    0.0
2020/08/06 08:19:22.000    615985.7217   3596817.1746   5213658.9190   5  14   4.4916   5.2496   9.3286   2.9135   5.6044   3.4580   0.00    0.0
2020/08/06 08:19:32.000    615985.7046   3596817.1690   5213658.8699   5  14   4.4878   5.2442   9.3279   2.9065   5.5971   3.4499   0.00    0.0
2020/08/06 08:19:42.000    615985.7411   3596817.1996   5213658.9165   5  14   4.4841   5.2389   9.3270   2.8995   5.5897   3.4418   0.00    0.0
2020/08/06 08:19:52.000    615985.7682   3596817.1879   5213659.0578   5  14   4.4804   5.2335   9.3260   2.8924   5.5823   3.4337   0.00    0.0
2020/08/06 08:20:02.000    615985.7125   3596817.1710   5213659.0094   5  14   4.4767   5.2281   9.3249   2.8854   5.5748   3.4255   0.00    0.0
2020/08/06 08:20:12.000    615985.6957   3596817.2207   5213659.0678   5  14   4.4730   5.2227   9.3238   2.8783   5.5672   3.4174   0.00    0.0
2020/08/06 08:20:22.000    615985.7340   3596817.3324   5213659.1951   5  14   4.4693   5.2172   9.3225   2.8713   5.5595   3.4092   0.00    0.0
2020/08/06 08:20:32.000    615985.7762   3596817.3988   5213659.3018   5  14   4.4656   5.2118   9.3211   2.8642   5.5518   3.4009   0.00    0.0
2020/08/06 08:20:42.000    615985.7953   3596817.4704   5213659.4459   5  14   4.4620   5.2063   9.3196   2.8571   5.5440   3.3927   0.00    0.0
2020/08/06 08:20:52.000    615985.8836   3596817.5261   5213659.6458   5  14   4.4583   5.2009   9.3180   2.8501   5.5361   3.3844   0.00    0.0
2020/08/06 08:21:02.000    615985.9203   3596817.4915   5213659.6991   5  14   4.4547   5.1954   9.3164   2.8430   5.5281   3.3761   0.00    0.0
2020/08/06 08:21:12.000    615985.9519   3596817.5473   5213659.7118   5  14   4.4511   5.1899   9.3146   2.8360   5.5201   3.3678   0.00    0.0
2020/08/06 08:21:22.000    615985.9814   3596817.6313   5213659.9169   5  14   4.4475   5.1844   9.3127   2.8289   5.5120   3.3595   0.00    0.0
2020/08/06 08:21:32.000    615985.9993   3596817.5469   5213659.8347   5  14   4.4439   5.1789   9.3108   2.8219   5.5039   3.3511   0.00    0.0
2020/08/06 08:21:42.000    615985.9984   3596817.4886   5213659.7921   5  14   4.4404   5.1734   9.3087   2.8148   5.4956   3.3427   0.00    0.0
2020/08/06 08:21:52.000    615986.0585   3596817.4326   5213659.7330   5  14   4.4368   5.1678   9.3065   2.8077   5.4873   3.3343   0.00    0.0
2020/08/06 08:22:02.000    615986.1384   3596817.4575   5213659.8775   5  14   4.4333   5.1623   9.3043   2.8007   5.4789   3.3259   0.00    0.0
2020/08/06 08:22:12.000    615986.2369   3596817.5538   5213660.0498   5  14   4.4297   5.1567   9.3019   2.7936   5.4705   3.3174   0.00    0.0
2020/08/06 08:22:22.000    615986.3358   3596817.6342   5213660.1779   5  14   4.4262   5.1511   9.2994   2.7866   5.4620   3.3089   0.00    0.0
2020/08/06 08:22:32.000    615986.3324   3596817.6864   5213660.2625   5  14   4.4228   5.1456   9.2969   2.7795   5.4534   3.3005   0.00    0.0
2020/08/06 08:22:42.000    615986.2950   3596817.8066   5213660.4184   5  14   4.4193   5.1400   9.2942   2.7725   5.4448   3.2919   0.00    0.0
2020/08/06 08:22:52.000    615986.2109   3596817.8071   5213660.3933   5  14   4.4158   5.1344   9.2915   2.7655   5.4360   3.2834   0.00    0.0
2020/08/06 08:23:02.000    615986.1125   3596817.7994   5213660.3279   5  14   4.4124   5.1288   9.2886   2.7584   5.4273   3.2749   0.00    0.0
2020/08/06 08:23:12.000    615986.0765   3596817.7768   5213660.2569   5  14   4.4089   5.1232   9.2857   2.7514   5.4184   3.2663   0.00    0.0
2020/08/06 08:23:22.000    615986.1075   3596817.8700   5213660.3602   5  14   4.4055   5.1175   9.2827   2.7444   5.4095   3.2577   0.00    0.0
2020/08/06 08:23:32.000    615986.0601   3596817.8640   5213660.3933   5  14   4.4021   5.1119   9.2796   2.7373   5.4005   3.2491   0.00    0.0
2020/08/06 08:23:42.000    615986.0520   3596817.8441   5213660.4831   5  14   4.3987   5.1063   9.2763   2.7303   5.3915   3.2405   0.00    0.0
2020/08/06 08:23:52.000    615986.0466   3596817.8655   5213660.5816   5  14   4.3954   5.1007   9.2730   2.7233   5.3824   3.2319   0.00    0.0
2020/08/06 08:24:02.000    615986.0093   3596817.8668   5213660.5913   5  14   4.3920   5.0950   9.2696   2.7163   5.3732   3.2232   0.00    0.0
2020/08/06 08:24:12.000    615985.9766   3596817.8482   5213660.5619   5  14   4.3887   5.0894   9.2661   2.7093   5.3640   3.2146   0.00    0.0
2020/08/06 08:24:22.000    615985.9309   3596817.8333   5213660.4963   5  14   4.3854   5.0837   9.2625   2.7023   5.3547   3.2059   0.00    0.0
2020/08/06 08:24:32.000    615985.8721   3596817.6878   5213660.3925   5  14   4.3821   5.0781   9.2588   2.6953   5.3453   3.1972   0.00    0.0
2020/08/06 08:24:42.000    615985.8329   3596817.5261   5213660.3405   5  14   4.3788   5.0724   9.2551   2.6883   5.3359   3.1885   0.00    0.0
2020/08/06 08:24:52.000    615985.7855   3596817.4557   5213660.3358   5  14   4.3755   5.0668   9.2512   2.6813   5.3264   3.1798   0.00    0.0
2020/08/06 08:25:02.000    615985.8147   3596817.4746   5213660.3567   5  14   4.3723   5.0611   9.2472   2.6743   5.3169   3.1711   0.00    0.0
2020/08/06 08:25:12.000    615985.8980   3596817.3112   5213660.1687   5  14   4.3690   5.0554   9.2432   2.6674   5.3073   3.1624   0.00    0.0
2020/08/06 08:25:22.000    615985.9602   3596817.2904   5213660.1956   5  14   4.3658   5.0498   9.2390   2.6604   5.2976   3.1536   0.00    0.0
2020/08/06 08:25:32.000    615986.0276   3596817.1128   5213660.0885   5  14   4.3626   5.0441   9.2348   2.6534   5.2879   3.1449   0.00    0.0
2020/08/06 08:25:42.000    615986.0371   3596816.9263   5213659.7790   5  14   4.3594   5.0385   9.2305   2.6465   5.2781   3.1361   0.00    0.0
2020/08/06 08:25:52.000    615985.4464   3596818.8033   5213661.6084   5  13   4.5661   6.4834  10.1254   1.1724   6.6937   2.0179   0.00    0.0
2020/08/06 08:26:02.000    615985.4743   3596818.7909   5213661.5682   5  13   4.5651   6.4770  10.1211   1.1466   6.6848   1.9973   0.00    0.0
2020/08/06 08:26:12.000    615985.4941   3596818.8338   5213661.6616   5  13   4.5641   6.4705  10.1168   1.1205   6.6758   1.9767   0.00    0.0
2020/08/06 08:26:22.000    615985.4910   3596818.7172   5213661.4779   5  13   4.5632   6.4641  10.1123   1.0938   6.6667   1.9558   0.00    0.0
2020/08/06 08:26:32.000    615985.4570   3596818.6572   5213661.2461   5  13   4.5622   6.4576  10.1077   1.0666   6.6576   1.9349   0.00    0.0
2020/08/06 08:26:42.000    615985.4880   3596818.6636   5213661.0804   5  13   4.5613   6.4511  10.1030   1.0388   6.6484   1.9137   0.00    0.0
2020/08/06 08:26:52.000    615985.4837   3596818.7291   5213660.9613   5  13   4.5605   6.4446  10.0982   1.0103   6.6391   1.8924   0.00    0.0
2020/08/06 08:27:02.000    615985.4402   3596818.8154   5213660.9159   5  13   4.5596   6.4381  10.0933   0.9813   6.6298   1.8710   0.00    0.0
2020/08/06 08:27:12.000    615985.4006   3596818.8006   5213660.8031   5  13   4.5588   6.4316  10.0882   0.9514   6.6204   1.8494   0.00    0.0
2020/08/06 08:27:22.000    615985.3722   3596818.8373   5213660.7586   5  13   4.5580   6.4251  10.0831   0.9208   6.6109   1.8276   0.00    0.0
2020/08/06 08:27:32.000    615985.3227   3596818.7405   5213660.6671   5  13   4.5572   6.4185  10.0779   0.8892   6.6013   1.8057   0.00    0.0
2020/08/06 08:27:42.000    615985.2672   3596818.8353   5213660.7772   5  13   4.5564   6.4120  10.0725   0.8567   6.5917   1.7835   0.00    0.0
2020/08/06 08:27:52.000    615985.2291   3596818.9148   5213660.7895   5  13   4.5557   6.4054  10.0670   0.8231   6.5820   1.7612   0.00    0.0
2020/08/06 08:28:02.000    615985.2139   3596819.0610   5213660.8391   5  13   4.5549   6.3988  10.0615   0.7882   6.5722   1.7387   0.00    0.0
2020/08/06 08:28:12.000    615985.1846   3596819.0252   5213660.8179   5  13   4.5542   6.3922  10.0558   0.7518   6.5624   1.7160   0.00    0.0
2020/08/06 08:28:22.000    615985.1597   3596819.0205   5213660.7013   5  13   4.5535   6.3856  10.0500   0.7139   6.5525   1.6931   0.00    0.0
2020/08/06 08:28:32.000    615985.1340   3596818.9034   5213660.6333   5  13   4.5529   6.3790  10.0441   0.6740   6.5425   1.6700   0.00    0.0
2020/08/06 08:28:42.000    615985.1192   3596818.7668   5213660.4724   5  13   4.5522   6.3724  10.0381   0.6319   6.5325   1.6467   0.00    0.0
2020/08/06 08:28:52.000    615985.1632   3596818.7457   5213660.4512   5  13   4.5516   6.3658  10.0320   0.5870   6.5224   1.6232   0.00    0.0
2020/08/06 08:29:02.000    615985.1989   3596818.7564   5213660.4423   5  13   4.5510   6.3592  10.0258   0.5386   6.5122   1.5994   0.00    0.0
2020/08/06 08:29:12.000    615985.2013   3596818.7452   5213660.3326   5  13   4.5505   6.3525  10.0195   0.4857   6.5020   1.5754   0.00    0.0
2020/08/06 08:29:22.000    615985.1860   3596818.7039   5213660.2575   5  13   4.5499   6.3459  10.0131   0.4267   6.4917   1.5511   0.00    0.0
2020/08/06 08:29:32.000    615985.2393   3596815.8160   5213657.9050   5  14   4.5494   4.8956   9.4716   0.3368   5.3857   1.5226   0.00    0.0
2020/08/06 08:29:42.000    615985.3320   3596815.8376   5213658.0415   5  14   4.5489   4.8927   9.4699   0.3081   5.3812   1.5070   0.00    0.0
2020/08/06 08:29:52.000    615985.4550   3596815.8364   5213658.2014   5  14   4.5483   4.8898   9.4682   0.2766   5.3765   1.4912   0.00    0.0
2020/08/06 08:30:02.000    615984.9278   3596815.3164   5213656.9852   5  14   4.5478   4.8868   9.4663   0.2412   5.3718   1.4753   0.00    0.0
2020/08/06 08:30:12.000    615985.0154   3596815.4008   5213657.1837   5  14   4.5473   4.8838   9.4643   0.1999   5.3670   1.4592   0.00    0.0
2020/08/06 08:30:22.000    615985.0809   3596815.4387   5213657.2469   5  14   4.5468   4.8808   9.4622   0.1476   5.3621   1.4429   0.00    0.0
2020/08/06 08:30:32.000    615985.0758   3596815.4393   5213657.2503   5  14   4.5463   4.8778   9.4600   0.0608   5.3571   1.4265   0.00    0.0
2020/08/06 08:30:42.000    615985.0754   3596815.3342   5213657.2815   5  14   4.5458   4.8747   9.4577  -0.1196   5.3521   1.4099   0.00    0.0
2020/08/06 08:30:52.000    615985.0199   3596815.2984   5213657.1151   5  14   4.5454   4.8717   9.4552  -0.1795   5.3470   1.3932   0.00    0.0
2020/08/06 08:31:02.000    615985.0044   3596815.2265   5213657.0101   5  14   4.5449   4.8686   9.4526  -0.2236   5.3418   1.3762   0.00    0.0
2020/08/06 08:31:12.000    615985.0002   3596815.1569   5213656.7634   5  14   4.5444   4.8654   9.4499  -0.2603   5.3365   1.3591   0.00    0.0
2020/08/06 08:31:22.000    615984.9877   3596815.1512   5213656.6010   5  14   4.5439   4.8623   9.4471  -0.2922   5.3312   1.3418   0.00    0.0
2020/08/06 08:31:32.000    615984.9586   3596815.1485   5213656.4985   5  14   4.5434   4.8591   9.4441  -0.3208   5.3258   1.3243   0.00    0.0
2020/08/06 08:31:42.000    615984.9375   3596815.2113   5213656.4906   5  14   4.5430   4.8559   9.4410  -0.3469   5.3203   1.3066   0.00    0.0
2020/08/06 08:31:52.000    615984.8370   3596815.1559   5213656.2861   5  14   4.5425   4.8527   9.4379  -0.3711   5.3147   1.2886   0.00    0.0
2020/08/06 08:32:02.000    615984.7627   3596815.1118   5213656.2344   5  14   4.5420   4.8495   9.4346  -0.3936   5.3090   1.2705   0.00    0.0
2020/08/06 08:32:12.000    615984.7956   3596815.1555   5213656.2341   5  14   4.5416   4.8462   9.4311  -0.4148   5.3033   1.2521   0.00    0.0
2020/08/06 08:32:22.000    615984.7264   3596815.1572   5213656.0925   5  14   4.5411   4.8430   9.4276  -0.4349   5.2975   1.2336   0.00    0.0
2020/08/06 08:32:32.000    615984.6508   3596815.1165   5213655.9689   5  14   4.5407   4.8397   9.4240  -0.4540   5.2917   1.2147   0.00    0.0
2020/08/06 08:32:42.000    615984.6265   3596815.0632   5213655.9244   5  15   4.1826   4.2365   8.9831   1.9742   4.6176   2.5375   0.00    0.0
2020/08/06 08:32:52.000    615984.6472   3596814.9822   5213655.8271   5  15   4.1811   4.2356   8.9833   1.9690   4.6157   2.5251   0.00    0.0
2020/08/06 08:33:02.000    615984.7066   3596814.8998   5213655.6964   5  15   4.1796   4.2346   8.9833   1.9639   4.6138   2.5126   0.00    0.0
2020/08/06 08:33:12.000    615984.7393   3596814.9056   5213655.7725   5  15   4.1781   4.2337   8.9832   1.9587   4.6118   2.5001   0.00    0.0
2020/08/06 08:33:22.000    615984.7706   3596815.0162   5213655.8903   5  15   4.1766   4.2327   8.9831   1.9535   4.6097   2.4875   0.00    0.0
2020/08/06 08:33:32.000    615984.8296   3596815.1043   5213656.0903   5  15   4.1752   4.2318   8.9828   1.9483   4.6076   2.4747   0.00    0.0
2020/08/06 08:33:42.000    615984.7981   3596815.1315   5213656.2071   5  15   4.1737   4.2308   8.9824   1.9431   4.6054   2.4619   0.00    0.0
2020/08/06 08:33:52.000    615984.8156   3596815.2014   5213656.3048   5  15   4.1723   4.2298   8.9819   1.9378   4.6031   2.4490   0.00    0.0
2020/08/06 08:34:02.000    615984.7908   3596815.3078   5213656.5387   5  15   4.1708   4.2288   8.9812   1.9326   4.6008   2.4360   0.00    0.0
2020/08/06 08:34:12.000    615984.8230   3596815.3720   5213656.7923   5  15   4.1694   4.2277   8.9805   1.9273   4.5984   2.4229   0.00    0.0
2020/08/06 08:34:22.000    615984.8208   3596815.3640   5213656.8377   5  15   4.1680   4.2267   8.9797   1.9220   4.5960   2.4097   0.00    0.0
2020/08/06 08:34:32.000    615984.8840   3596815.4534   5213657.0474   5  15   4.1666   4.2257   8.9787   1.9168   4.5935   2.3965   0.00    0.0
2020/08/06 08:34:42.000    615984.9592   3596815.4939   5213657.1482   5  15   4.1652   4.2246   8.9777   1.9115   4.5910   2.3831   0.00    0.0
2020/08/06 08:34:52.000    615984.9124   3596815.5372   5213657.2573   5  15   4.1638   4.2235   8.9765   1.9062   4.5884   2.3696   0.00    0.0
2020/08/06 08:35:02.000    615984.8764   3596815.5882   5213657.4579   5  15   4.1624   4.2224   8.9753   1.9009   4.5857   2.3561   0.00    0.0
2020/08/06 08:35:12.000    615984.9149   3596815.7284   5213657.7767   5  15   4.1610   4.2213   8.9739   1.8955   4.5830   2.3424   0.00    0.0
2020/08/06 08:35:22.000    615984.9402   3596815.9022   5213658.0746   5  15   4.1597   4.2202   8.9724   1.8902   4.5802   2.3287   0.00    0.0
2020/08/06 08:35:32.000    615984.9692   3596816.0009   5213658.0613   5  15   4.1583   4.2191   8.9708   1.8849   4.5774   2.3149   0.00    0.0
2020/08/06 08:35:42.000    615984.9901   3596816.0796   5213658.1096   5  15   4.1570   4.2180   8.9691   1.8795   4.5745   2.3009   0.00    0.0
2020/08/06 08:35:52.000    615985.0237   3596816.1639   5213658.1666   5  15   4.1557   4.2168   8.9673   1.8741   4.5715   2.2869   0.00    0.0
2020/08/06 08:36:02.000    615985.0484   3596816.1608   5213658.1387   5  15   4.1544   4.2157   8.9654   1.8688   4.5685   2.2728   0.00    0.0
2020/08/06 08:36:12.000    615985.0737   3596816.0661   5213657.8751   5  15   4.1531   4.2145   8.9634   1.8634   4.5654   2.2585   0.00    0.0
2020/08/06 08:36:22.000    615984.9920   3596815.9840   5213657.4486   5  15   4.1518   4.2133   8.9613   1.8580   4.5623   2.2442   0.00    0.0
2020/08/06 08:36:32.000    615984.9921   3596815.9412   5213657.2281   5  15   4.1505   4.2121   8.9591   1.8526   4.5591   2.2298   0.00    0.0
2020/08/06 08:36:42.000    615984.9749   3596815.8787   5213656.9161   5  15   4.1493   4.2109   8.9567   1.8472   4.5559   2.2153   0.00    0.0
2020/08/06 08:36:52.000    615984.8911   3596815.8389   5213656.6340   5  15   4.1480   4.2097   8.9543   1.8418   4.5526   2.2007   0.00    0.0
2020/08/06 08:37:02.000    615984.8793   3596815.7580   5213656.4946   5  15   4.1468   4.2085   8.9518   1.8364   4.5492   2.1860   0.00    0.0
2020/08/06 08:37:12.000    615984.8586   3596815.7335   5213656.2680   5  15   4.1456   4.2073   8.9491   1.8310   4.5458   2.1712   0.00    0.0
2020/08/06 08:37:22.000    615984.8607   3596815.7323   5213656.1544   5  15   4.1443   4.2060   8.9464   1.8256   4.5424   2.1563   0.00    0.0
2020/08/06 08:37:32.000    615984.8801   3596815.7464   5213656.1716   5  15   4.1431   4.2048   8.9436   1.8201   4.5389   2.1413   0.00    0.0
2020/08/06 08:37:42.000    615984.9410   3596815.6348   5213656.0581   5  15   4.1419   4.2035   8.9406   1.8147   4.5353   2.1261   0.00    0.0
2020/08/06 08:37:52.000    615984.9885   3596815.6062   5213656.1056   5  15   4.1408   4.2022   8.9376   1.8093   4.5317   2.1109   0.00    0.0
2020/08/06 08:38:02.000    615985.0321   3596815.5781   5213656.1123   5  15   4.1396   4.2010   8.9344   1.8038   4.5280   2.0956   0.00    0.0
2020/08/06 08:38:12.000    615985.0530   3596815.6232   5213656.3110   5  15   4.1384   4.1997   8.9312   1.7984   4.5243   2.0802   0.00    0.0
2020/08/06 08:38:22.000    615985.0494   3596815.6487   5213656.4571   5  15   4.1373   4.1984   8.9278   1.7929   4.5205   2.0646   0.00    0.0
2020/08/06 08:38:32.000    615985.0660   3596815.5872   5213656.4549   5  15   4.1362   4.1971   8.9244   1.7875   4.5167   2.0490   0.00    0.0
2020/08/06 08:38:42.000    615985.1046   3596815.6005   5213656.6222   5  15   4.1350   4.1957   8.9208   1.7820   4.5128   2.0333   0.00    0.0
2020/08/06 08:38:52.000    615985.1510   3596815.5836   5213656.7552   5  15   4.1339   4.1944   8.9171   1.7765   4.5088   2.0174   0.00    0.0
2020/08/06 08:39:02.000    615985.1002   3596815.6861   5213656.9223   5  15   4.1328   4.1931   8.9134   1.7711   4.5049   2.0014   0.00    0.0
2020/08/06 08:39:12.000    615985.1352   3596815.7871   5213657.1167   5  15   4.1317   4.1917   8.9096   1.7656   4.5008   1.9854   0.00    0.0
2020/08/06 08:39:22.000    615985.1042   3596815.8363   5213657.1632   5  15   4.1307   4.1904   8.9056   1.7601   4.4967   1.9692   0.00    0.0
2020/08/06 08:39:32.000    615983.1389   3596813.8357   5213655.0662   5  14   4.7854   4.8440   9.2209   2.9934   5.1025   3.1033   0.00    0.0
