% program   : RTKLIB ver.2.4.3
% inp file  : C:\Users\Satellite\Desktop\Разработки\Soft\RouteGNSS\TestData\karg219f20.20o
% inp file  : C:\Users\Satellite\Desktop\Разработки\Soft\RouteGNSS\TestData\karg219f20.20n
% inp file  : C:\Users\Satellite\Desktop\Разработки\Soft\RouteGNSS\TestData\karg219f20.20g
% obs start : 2020/08/06 05:19:42.0 UTC (week2117 364800.0s)
% obs end   : 2020/08/06 06:19:32.0 UTC (week2117 368390.0s)
% pos mode  : Single
% elev mask : 15.0 deg
% ionos opt : Broadcast
% tropo opt : Saastamoinen
% ephemeris : Broadcast
% navi sys  : GPS GLONASS Galileo QZSS BDS NavIC SBAS
%
% (x/y/z-ecef=WGS84,Q=1:fix,2:float,3:sbas,4:dgps,5:single,6:ppp,ns=# of satellites)
%  UTC                       x-ecef(m)      y-ecef(m)      z-ecef(m)   Q  ns   sdx(m)   sdy(m)   sdz(m)  sdxy(m)  sdyz(m)  sdzx(m) age(s)  ratio
2020/08/06 05:59:42.000    615984.4352   3596815.1696   5213661.3979   5   8   7.0350  13.6928  19.2746  -5.9981  12.7726  -2.4347   0.00    0.0
2020/08/06 05:59:52.000    615984.3949   3596815.1716   5213661.3439   5   8   7.0394  13.6868  19.2297  -6.0061  12.7454  -2.4277   0.00    0.0
2020/08/06 06:00:02.000    615984.3573   3596815.1523   5213661.2666   5   8   7.0438  13.6808  19.1847  -6.0140  12.7182  -2.4207   0.00    0.0
2020/08/06 06:00:12.000    615984.3871   3596815.1747   5213661.3153   5   8   7.0481  13.6748  19.1397  -6.0219  12.6909  -2.4136   0.00    0.0
2020/08/06 06:00:22.000    615984.3567   3596815.0882   5213661.3107   5   8   7.0525  13.6687  19.0947  -6.0298  12.6636  -2.4064   0.00    0.0
2020/08/06 06:00:32.000    615984.3235   3596814.9663   5213661.2366   5   8   7.0569  13.6627  19.0497  -6.0377  12.6362  -2.3992   0.00    0.0
2020/08/06 06:00:42.000    615984.2707   3596814.8946   5213661.1823   5   8   7.0614  13.6566  19.0046  -6.0456  12.6087  -2.3919   0.00    0.0
2020/08/06 06:00:52.000    615984.2456   3596814.9356   5213661.2597   5   8   7.0658  13.6505  18.9596  -6.0534  12.5812  -2.3846   0.00    0.0
2020/08/06 06:01:02.000    615984.2583   3596815.0682   5213661.4990   5   8   7.0702  13.6444  18.9145  -6.0612  12.5537  -2.3772   0.00    0.0
2020/08/06 06:01:12.000    615984.2519   3596815.1308   5213661.5814   5   8   7.0746  13.6383  18.8694  -6.0690  12.5261  -2.3697   0.00    0.0
2020/08/06 06:01:22.000    615984.2349   3596815.2068   5213661.6076   5   8   7.0790  13.6321  18.8243  -6.0768  12.4985  -2.3622   0.00    0.0
2020/08/06 06:01:32.000    615984.2134   3596815.2403   5213661.5915   5   8   7.0835  13.6260  18.7792  -6.0846  12.4708  -2.3546   0.00    0.0
2020/08/06 06:01:42.000    615984.2564   3596815.2817   5213661.6153   5   8   7.0879  13.6199  18.7342  -6.0923  12.4431  -2.3470   0.00    0.0
2020/08/06 06:01:52.000    615984.3132   3596815.3591   5213661.5794   5   8   7.0924  13.6137  18.6891  -6.1001  12.4154  -2.3393   0.00    0.0
2020/08/06 06:02:02.000    615984.3634   3596815.3873   5213661.4431   5   8   7.0968  13.6076  18.6441  -6.1078  12.3876  -2.3316   0.00    0.0
2020/08/06 06:02:12.000    615984.3682   3596815.4317   5213661.3724   5   8   7.1013  13.6014  18.5990  -6.1155  12.3598  -2.3238   0.00    0.0
2020/08/06 06:02:22.000    615984.3893   3596815.4951   5213661.4130   5   8   7.1058  13.5953  18.5540  -6.1232  12.3320  -2.3159   0.00    0.0
2020/08/06 06:02:32.000    615984.3640   3596815.5478   5213661.3809   5   7   7.1102  13.5891  18.5091  -6.1308  12.3042  -2.3080   0.00    0.0
2020/08/06 06:02:42.000    615984.4126   3596815.5617   5213661.4466   5   7   7.1147  13.5830  18.4641  -6.1385  12.2763  -2.3001   0.00    0.0
2020/08/06 06:02:52.000    615984.4551   3596815.5753   5213661.4242   5   7   7.1192  13.5768  18.4192  -6.1461  12.2485  -2.2920   0.00    0.0
2020/08/06 06:03:02.000    615984.5282   3596815.6069   5213661.4755   5   7   7.1237  13.5707  18.3743  -6.1537  12.2206  -2.2840   0.00    0.0
2020/08/06 06:03:12.000    615984.5954   3596815.6499   5213661.4711   5   7   7.1282  13.5645  18.3295  -6.1613  12.1927  -2.2758   0.00    0.0
2020/08/06 06:03:22.000    615984.6437   3596815.6653   5213661.5157   5   7   7.1327  13.5584  18.2847  -6.1689  12.1647  -2.2676   0.00    0.0
2020/08/06 06:03:32.000    615984.6659   3596815.6336   5213661.6318   5   7   7.1372  13.5522  18.2400  -6.1764  12.1368  -2.2594   0.00    0.0
2020/08/06 06:03:42.000    615984.6216   3596815.6695   5213661.7412   5   7   7.1417  13.5461  18.1953  -6.1839  12.1089  -2.2510   0.00    0.0
2020/08/06 06:03:52.000    615984.5936   3596815.7181   5213661.7929   5   7   7.1462  13.5400  18.1506  -6.1915  12.0810  -2.2427   0.00    0.0
2020/08/06 06:04:02.000    615984.5247   3596815.6750   5213661.7826   5   7   7.1507  13.5338  18.1060  -6.1990  12.0530  -2.2342   0.00    0.0
2020/08/06 06:04:12.000    615984.4949   3596815.5955   5213661.6903   5   7   7.1552  13.5277  18.0615  -6.2064  12.0251  -2.2257   0.00    0.0
2020/08/06 06:04:22.000    615984.5122   3596815.5695   5213661.6458   5   7   7.1598  13.5216  18.0170  -6.2139  11.9971  -2.2172   0.00    0.0
2020/08/06 06:04:32.000    615984.5165   3596815.5883   5213661.5724   5   7   7.1643  13.5155  17.9726  -6.2213  11.9692  -2.2085   0.00    0.0
2020/08/06 06:04:42.000    615984.5500   3596815.6118   5213661.5298   5   7   7.1688  13.5094  17.9283  -6.2288  11.9413  -2.1999   0.00    0.0
2020/08/06 06:04:52.000    615984.5396   3596815.6221   5213661.5447   5   7   7.1734  13.5033  17.8840  -6.2362  11.9133  -2.1911   0.00    0.0
2020/08/06 06:05:02.000    615984.4836   3596815.6873   5213661.5249   5   7   7.1779  13.4972  17.8398  -6.2436  11.8854  -2.1823   0.00    0.0
2020/08/06 06:05:12.000    615984.3943   3596815.6690   5213661.4024   5   7   7.1825  13.4911  17.7957  -6.2509  11.8575  -2.1734   0.00    0.0
2020/08/06 06:05:22.000    615984.2971   3596815.6442   5213661.3384   5   7   7.1870  13.4851  17.7516  -6.2583  11.8296  -2.1645   0.00    0.0
2020/08/06 06:05:32.000    615984.2413   3596815.6856   5213661.3501   5   7   7.1916  13.4790  17.7076  -6.2656  11.8017  -2.1555   0.00    0.0
2020/08/06 06:05:42.000    615984.2032   3596815.7097   5213661.4366   5   7   7.1961  13.4730  17.6638  -6.2729  11.7738  -2.1465   0.00    0.0
2020/08/06 06:05:52.000    615984.1676   3596815.7520   5213661.4492   5   7   7.2007  13.4670  17.6199  -6.2802  11.7460  -2.1373   0.00    0.0
2020/08/06 06:06:02.000    615984.1338   3596815.7607   5213661.4725   5   7   7.2053  13.4610  17.5762  -6.2875  11.7181  -2.1281   0.00    0.0
2020/08/06 06:06:12.000    615984.1061   3596815.8635   5213661.5555   5   7   7.2098  13.4550  17.5326  -6.2947  11.6903  -2.1189   0.00    0.0
2020/08/06 06:06:22.000    615984.0800   3596815.8911   5213661.5818   5   7   7.2144  13.4490  17.4890  -6.3020  11.6625  -2.1096   0.00    0.0
2020/08/06 06:06:32.000    615984.0519   3596815.8837   5213661.5895   5   7   7.2190  13.4430  17.4456  -6.3092  11.6347  -2.1002   0.00    0.0
2020/08/06 06:06:42.000    615984.0224   3596815.8054   5213661.5850   5   7   7.2235  13.4371  17.4022  -6.3164  11.6070  -2.0907   0.00    0.0
2020/08/06 06:06:52.000    615984.0200   3596815.6733   5213661.5919   5   7   7.2281  13.4311  17.3590  -6.3235  11.5792  -2.0812   0.00    0.0
2020/08/06 06:07:02.000    615983.9954   3596815.5008   5213661.4982   5   7   7.2327  13.4252  17.3158  -6.3307  11.5515  -2.0716   0.00    0.0
2020/08/06 06:07:12.000    615983.9694   3596815.3071   5213661.3754   5   7   7.2373  13.4193  17.2727  -6.3378  11.5239  -2.0620   0.00    0.0
2020/08/06 06:07:22.000    615983.9257   3596815.0929   5213661.2053   5   7   7.2419  13.4134  17.2298  -6.3449  11.4962  -2.0522   0.00    0.0
2020/08/06 06:07:32.000    615983.8927   3596814.8503   5213660.9886   5   7   7.2465  13.4076  17.1869  -6.3520  11.4686  -2.0424   0.00    0.0
2020/08/06 06:07:42.000    615983.9099   3596814.6938   5213660.7794   5   7   7.2511  13.4017  17.1442  -6.3591  11.4410  -2.0326   0.00    0.0
2020/08/06 06:07:52.000    615983.9359   3596814.4879   5213660.6486   5   7   7.2557  13.3959  17.1015  -6.3662  11.4134  -2.0226   0.00    0.0
2020/08/06 06:08:02.000    615983.9800   3596814.2724   5213660.3584   5   7   7.2603  13.3900  17.0590  -6.3732  11.3859  -2.0126   0.00    0.0
2020/08/06 06:08:12.000    615983.9655   3596814.0759   5213660.2778   5   7   7.2649  13.3842  17.0165  -6.3802  11.3584  -2.0025   0.00    0.0
2020/08/06 06:08:22.000    615983.9405   3596814.0271   5213660.2854   5   7   7.2695  13.3785  16.9742  -6.3872  11.3310  -1.9923   0.00    0.0
2020/08/06 06:08:32.000    615983.9366   3596814.1001   5213660.2544   5   7   7.2741  13.3727  16.9320  -6.3942  11.3035  -1.9821   0.00    0.0
2020/08/06 06:08:42.000    615983.9108   3596814.1874   5213660.3429   5   7   7.2787  13.3669  16.8899  -6.4012  11.2762  -1.9718   0.00    0.0
2020/08/06 06:08:52.000    615983.8728   3596813.9959   5213660.3629   5   7   7.2833  13.3612  16.8480  -6.4081  11.2488  -1.9614   0.00    0.0
2020/08/06 06:09:02.000    615983.8899   3596814.0327   5213660.5216   5   7   7.2879  13.3555  16.8061  -6.4150  11.2215  -1.9509   0.00    0.0
2020/08/06 06:09:12.000    615983.9033   3596814.0686   5213660.6479   5   7   7.2925  13.3498  16.7644  -6.4219  11.1942  -1.9404   0.00    0.0
2020/08/06 06:09:22.000    615983.9084   3596814.0259   5213660.6419   5   7   7.2971  13.3441  16.7227  -6.4288  11.1670  -1.9297   0.00    0.0
2020/08/06 06:09:32.000    615983.9143   3596814.0454   5213660.7747   5   7   7.3018  13.3385  16.6812  -6.4356  11.1398  -1.9190   0.00    0.0
2020/08/06 06:09:42.000    615983.9321   3596814.0736   5213660.8704   5   7   7.3064  13.3328  16.6399  -6.4425  11.1127  -1.9082   0.00    0.0
2020/08/06 06:09:52.000    615983.9838   3596814.2536   5213661.0414   5   7   7.3110  13.3272  16.5986  -6.4493  11.0856  -1.8973   0.00    0.0
2020/08/06 06:10:02.000    615983.9953   3596814.3941   5213661.2075   5   7   7.3156  13.3216  16.5575  -6.4561  11.0585  -1.8864   0.00    0.0
2020/08/06 06:10:12.000    615983.9817   3596814.5455   5213661.3148   5   7   7.3202  13.3161  16.5165  -6.4628  11.0315  -1.8753   0.00    0.0
2020/08/06 06:10:22.000    615984.0136   3596814.8694   5213661.5327   5   7   7.3249  13.3105  16.4756  -6.4696  11.0046  -1.8642   0.00    0.0
2020/08/06 06:10:32.000    615984.0278   3596815.0398   5213661.6700   5   7   7.3295  13.3050  16.4349  -6.4763  10.9777  -1.8529   0.00    0.0
2020/08/06 06:10:42.000    615984.0615   3596815.2164   5213661.7889   5   7   7.3341  13.2995  16.3942  -6.4830  10.9508  -1.8416   0.00    0.0
2020/08/06 06:10:52.000    615984.1216   3596815.3819   5213661.8231   5   7   7.3387  13.2940  16.3538  -6.4897  10.9240  -1.8302   0.00    0.0
2020/08/06 06:11:02.000    615984.1670   3596815.4747   5213661.8054   5   7   7.3433  13.2885  16.3134  -6.4963  10.8972  -1.8187   0.00    0.0
2020/08/06 06:11:12.000    615984.2498   3596815.6339   5213661.7372   5   7   7.3480  13.2830  16.2732  -6.5030  10.8705  -1.8071   0.00    0.0
2020/08/06 06:11:22.000    615984.3028   3596815.7158   5213661.7020   5   7   7.3526  13.2776  16.2331  -6.5096  10.8438  -1.7953   0.00    0.0
2020/08/06 06:11:32.000    615984.3194   3596815.8331   5213661.8337   5   7   7.3572  13.2722  16.1931  -6.5162  10.8172  -1.7835   0.00    0.0
2020/08/06 06:11:42.000    615984.2906   3596815.9466   5213661.8029   5   7   7.3618  13.2668  16.1533  -6.5228  10.7906  -1.7716   0.00    0.0
2020/08/06 06:11:52.000    615984.2872   3596815.9777   5213661.7696   5   7   7.3665  13.2614  16.1136  -6.5293  10.7641  -1.7596   0.00    0.0
2020/08/06 06:12:02.000    615984.3099   3596816.0117   5213661.7151   5   7   7.3711  13.2561  16.0740  -6.5358  10.7376  -1.7475   0.00    0.0
2020/08/06 06:12:12.000    615984.3245   3596815.9962   5213661.7344   5   7   7.3757  13.2508  16.0346  -6.5423  10.7112  -1.7353   0.00    0.0
2020/08/06 06:12:22.000    615984.3374   3596816.0465   5213661.6624   5   7   7.3803  13.2454  15.9953  -6.5488  10.6849  -1.7230   0.00    0.0
2020/08/06 06:12:32.000    615984.3579   3596816.0845   5213661.5721   5   7   7.3850  13.2402  15.9562  -6.5553  10.6586  -1.7105   0.00    0.0
2020/08/06 06:12:42.000    615984.3734   3596816.1132   5213661.5565   5   7   7.3896  13.2349  15.9172  -6.5617  10.6323  -1.6980   0.00    0.0
2020/08/06 06:12:52.000    615984.4178   3596816.0253   5213661.5303   5   7   7.3942  13.2296  15.8783  -6.5681  10.6061  -1.6853   0.00    0.0
2020/08/06 06:13:02.000    615984.4457   3596815.9946   5213661.6312   5   7   7.3988  13.2244  15.8396  -6.5745  10.5800  -1.6725   0.00    0.0
2020/08/06 06:13:12.000    615984.4485   3596815.9944   5213661.8046   5   7   7.4034  13.2192  15.8010  -6.5809  10.5539  -1.6596   0.00    0.0
2020/08/06 06:13:22.000    615984.4252   3596815.9114   5213661.8335   5   7   7.4081  13.2140  15.7625  -6.5872  10.5279  -1.6466   0.00    0.0
2020/08/06 06:13:32.000    615984.4006   3596815.9755   5213661.9225   5   7   7.4127  13.2088  15.7242  -6.5935  10.5019  -1.6334   0.00    0.0
2020/08/06 06:13:42.000    615984.3808   3596815.9568   5213661.9153   5   7   7.4173  13.2037  15.6860  -6.5998  10.4760  -1.6202   0.00    0.0
2020/08/06 06:13:52.000    615984.3805   3596815.9971   5213661.9228   5   7   7.4219  13.1986  15.6480  -6.6061  10.4501  -1.6067   0.00    0.0
2020/08/06 06:14:02.000    615984.3369   3596815.9799   5213661.9715   5   7   7.4265  13.1934  15.6101  -6.6123  10.4243  -1.5932   0.00    0.0
2020/08/06 06:14:12.000    615984.3183   3596815.9889   5213662.0126   5   7   7.4311  13.1884  15.5724  -6.6186  10.3986  -1.5795   0.00    0.0
2020/08/06 06:14:22.000    615984.3224   3596815.9822   5213662.1661   5   7   7.4357  13.1833  15.5348  -6.6248  10.3729  -1.5657   0.00    0.0
2020/08/06 06:14:32.000    615984.3155   3596815.9674   5213662.3425   5   7   7.4404  13.1782  15.4973  -6.6309  10.3473  -1.5517   0.00    0.0
2020/08/06 06:14:42.000    615984.3043   3596815.9740   5213662.4862   5   7   7.4450  13.1732  15.4600  -6.6371  10.3217  -1.5376   0.00    0.0
2020/08/06 06:14:52.000    615984.2678   3596815.9311   5213662.5373   5   7   7.4496  13.1682  15.4228  -6.6432  10.2962  -1.5233   0.00    0.0
2020/08/06 06:15:02.000    615984.2303   3596815.9409   5213662.5374   5   7   7.4542  13.1632  15.3858  -6.6493  10.2708  -1.5088   0.00    0.0
2020/08/06 06:15:12.000    615984.2169   3596815.9257   5213662.5085   5   7   7.4588  13.1582  15.3489  -6.6554  10.2454  -1.4942   0.00    0.0
2020/08/06 06:15:22.000    615984.2203   3596815.8468   5213662.5350   5   7   7.4634  13.1532  15.3122  -6.6614  10.2201  -1.4795   0.00    0.0
2020/08/06 06:15:32.000    615984.2165   3596815.8441   5213662.4968   5   7   7.4680  13.1483  15.2756  -6.6675  10.1948  -1.4645   0.00    0.0
2020/08/06 06:15:42.000    615984.2237   3596815.8521   5213662.4697   5   7   7.4726  13.1434  15.2391  -6.6735  10.1696  -1.4494   0.00    0.0
2020/08/06 06:15:52.000    615984.1793   3596815.8877   5213662.4173   5   7   7.4771  13.1385  15.2028  -6.6794  10.1444  -1.4341   0.00    0.0
2020/08/06 06:16:02.000    615984.1499   3596815.8754   5213662.3533   5   7   7.4817  13.1336  15.1666  -6.6854  10.1193  -1.4186   0.00    0.0
2020/08/06 06:16:12.000    615984.1181   3596815.8611   5213662.2948   5   7   7.4863  13.1287  15.1306  -6.6913  10.0943  -1.4029   0.00    0.0
2020/08/06 06:16:22.000    615984.0220   3596815.8668   5213662.1940   5   7   7.4909  13.1239  15.0947  -6.6972  10.0693  -1.3871   0.00    0.0
2020/08/06 06:16:32.000    615983.9262   3596815.8410   5213662.1151   5   7   7.4955  13.1190  15.0590  -6.7031  10.0444  -1.3710   0.00    0.0
2020/08/06 06:16:42.000    615983.8883   3596815.9921   5213662.0679   5   7   7.5001  13.1142  15.0234  -6.7089  10.0196  -1.3547   0.00    0.0
2020/08/06 06:16:52.000    615983.9168   3596815.9433   5213661.9532   5   7   7.5046  13.1094  14.9880  -6.7147   9.9948  -1.3381   0.00    0.0
2020/08/06 06:17:02.000    615983.9571   3596816.0035   5213662.0110   5   7   7.5092  13.1046  14.9527  -6.7205   9.9701  -1.3214   0.00    0.0
2020/08/06 06:17:12.000    615983.9938   3596815.9857   5213662.0191   5   7   7.5138  13.0998  14.9176  -6.7263   9.9454  -1.3044   0.00    0.0
2020/08/06 06:17:22.000    615984.5639   3596816.2802   5213662.6630   5   6   9.0082  13.4663  16.6289  -5.4533  11.0325   5.9291   0.00    0.0
2020/08/06 06:17:32.000    615984.5371   3596816.2068   5213662.6022   5   6   9.0152  13.4594  16.5952  -5.4631  11.0064   5.9341   0.00    0.0
2020/08/06 06:17:42.000    615984.5255   3596816.1485   5213662.6345   5   6   9.0221  13.4526  16.5616  -5.4729  10.9803   5.9390   0.00    0.0
2020/08/06 06:17:52.000    615984.5169   3596816.0788   5213662.5814   5   6   9.0291  13.4457  16.5281  -5.4827  10.9542   5.9439   0.00    0.0
2020/08/06 06:18:02.000    615984.5380   3596816.0054   5213662.4576   5   6   9.0361  13.4389  16.4947  -5.4924  10.9281   5.9488   0.00    0.0
2020/08/06 06:18:12.000    615984.5566   3596815.9588   5213662.5273   5   6   9.0430  13.4320  16.4614  -5.5022  10.9021   5.9537   0.00    0.0
2020/08/06 06:18:22.000    615984.6189   3596815.9261   5213662.6390   5   6   9.0499  13.4252  16.4282  -5.5120  10.8761   5.9585   0.00    0.0
2020/08/06 06:18:32.000    615984.5831   3596815.6880   5213662.5324   5   6   9.0569  13.4184  16.3951  -5.5217  10.8501   5.9633   0.00    0.0
2020/08/06 06:18:42.000    615985.8121   3596819.3163   5213665.1224   5   5  14.7270  38.6096  29.6482  19.7397  31.8170  17.9612   0.00    0.0
2020/08/06 06:18:52.000    615984.4673   3596815.1949   5213662.3945   5   6   9.0707  13.4048  16.3292  -5.5411  10.7982   5.9727   0.00    0.0
2020/08/06 06:19:02.000    615984.4367   3596814.9917   5213662.4226   5   6   9.0777  13.3980  16.2965  -5.5508  10.7723   5.9773   0.00    0.0
2020/08/06 06:19:12.000    615984.4757   3596814.9263   5213662.4965   5   6   9.0846  13.3912  16.2638  -5.5605  10.7465   5.9820   0.00    0.0
2020/08/06 06:19:22.000    615984.6283   3596815.1197   5213662.7394   5   6   9.0915  13.3844  16.2312  -5.5702  10.7206   5.9866   0.00    0.0
2020/08/06 06:19:32.000    615986.0212   3596819.3137   5213665.7074   5   5  14.4864  38.3628  29.0155  19.3436  31.3035  17.5288   0.00    0.0
