% program   : RTKLIB ver.2.4.3
% inp file  : C:\Users\Satellite\Desktop\–‡Á‡·ÓÚÍË\Soft\RouteGNSS\TestData\“≈—“»–Œ¬¿Õ»≈ PPP\“≈—“»–Œ¬¿Õ»≈ PPP\2012\NSK12060.12o
% inp file  : C:\Users\Satellite\Desktop\–‡Á‡·ÓÚÍË\Soft\RouteGNSS\TestData\“≈—“»–Œ¬¿Õ»≈ PPP\“≈—“»–Œ¬¿Õ»≈ PPP\2012\NSK12060.12n
% inp file  : C:\Users\Satellite\Desktop\–‡Á‡·ÓÚÍË\Soft\RouteGNSS\TestData\“≈—“»–Œ¬¿Õ»≈ PPP\“≈—“»–Œ¬¿Õ»≈ PPP\2012\NSK12060.12g
% inp file  : C:\Users\Satellite\Desktop\–‡Á‡·ÓÚÍË\Soft\RouteGNSS\TestData\“≈—“»–Œ¬¿Õ»≈ PPP\“≈—“»–Œ¬¿Õ»≈ PPP\2012\esa16982.clk
% inp file  : C:\Users\Satellite\Desktop\–‡Á‡·ÓÚÍË\Soft\RouteGNSS\TestData\“≈—“»–Œ¬¿Õ»≈ PPP\“≈—“»–Œ¬¿Õ»≈ PPP\2012\esa16982.sp3
% obs start : 2012/07/24 00:00:14.0 UTC (week1698 172830.0s)
% obs end   : 2012/07/24 23:59:44.0 UTC (week1698 259200.0s)
% pos mode  : Single
% elev mask : 15.0 deg
% ionos opt : Broadcast
% tropo opt : Saastamoinen
% ephemeris : Broadcast
% navi sys  : GPS GLONASS Galileo QZSS BDS NavIC SBAS
%
% (x/y/z-ecef=WGS84,Q=1:fix,2:float,3:sbas,4:dgps,5:single,6:ppp,ns=# of satellites)
%  UTC                       x-ecef(m)      y-ecef(m)      z-ecef(m)   Q  ns   sdx(m)   sdy(m)   sdz(m)  sdxy(m)  sdyz(m)  sdzx(m) age(s)  ratio
2012/07/24 00:00:14.000    447670.4114   3638117.3376   5202283.5577   5  14   1.5471   2.5738   3.9634  -0.2462   2.3754  -0.7429   0.00    0.0
2012/07/24 00:00:44.000    447670.7951   3638117.5023   5202283.3047   5  14   1.5476   2.5704   3.9461  -0.2665   2.3628  -0.7451   0.00    0.0
2012/07/24 00:01:14.000    447670.2134   3638117.0847   5202283.5301   5  14   1.5481   2.5670   3.9289  -0.2852   2.3501  -0.7471   0.00    0.0
2012/07/24 00:01:44.000    447670.5816   3638116.7558   5202280.5725   5  13   1.5941   2.5999   6.6367   0.2689   2.7902   1.2119   0.00    0.0
2012/07/24 00:02:14.000    447670.2230   3638117.1861   5202282.0204   5  13   1.5946   2.5948   6.6059   0.2405   2.7671   1.2061   0.00    0.0
2012/07/24 00:02:44.000    447670.8257   3638116.9226   5202280.9408   5  13   1.5951   2.5902   6.5742   0.2099   2.7441   1.2004   0.00    0.0
2012/07/24 00:03:14.000    447670.7253   3638117.0263   5202280.8740   5  13   1.5955   2.5852   6.5413   0.1723   2.7204   1.1943   0.00    0.0
2012/07/24 00:03:44.000    447670.6593   3638117.3087   5202280.3089   5  13   1.5960   2.5803   6.5075   0.1238   2.6965   1.1881   0.00    0.0
2012/07/24 00:04:14.000    447670.2666   3638116.8762   5202281.6258   5  13   1.5965   2.5754   6.4729   0.0310   2.6724   1.1817   0.00    0.0
2012/07/24 00:04:44.000    447670.1015   3638117.0013   5202280.1241   5  13   1.5978   2.5735   6.4375  -0.0851   2.6490   1.1760   0.00    0.0
2012/07/24 00:05:14.000    447670.8065   3638117.3550   5202281.5358   5  13   1.5984   2.5690   6.4013  -0.1453   2.6246   1.1694   0.00    0.0
2012/07/24 00:05:44.000    447670.7852   3638116.3220   5202280.6252   5  13   1.5990   2.5645   6.3645  -0.1869   2.6000   1.1626   0.00    0.0
2012/07/24 00:06:14.000    447670.6410   3638117.4411   5202281.7371   5  13   1.5997   2.5602   6.3269  -0.2208   2.5754   1.1558   0.00    0.0
2012/07/24 00:06:44.000    447670.5533   3638116.6554   5202279.3713   5  13   1.6003   2.5559   6.2889  -0.2500   2.5506   1.1488   0.00    0.0
2012/07/24 00:07:14.000    447670.6092   3638116.9328   5202280.3083   5  13   1.6009   2.5517   6.2503  -0.2760   2.5259   1.1418   0.00    0.0
2012/07/24 00:07:44.000    447670.4759   3638116.9593   5202280.3142   5  13   1.6016   2.5476   6.2112  -0.2997   2.5010   1.1347   0.00    0.0
2012/07/24 00:08:14.000    447670.4228   3638116.5922   5202280.2634   5  13   1.6023   2.5436   6.1717  -0.3216   2.4762   1.1275   0.00    0.0
2012/07/24 00:08:44.000    447670.0466   3638117.6523   5202280.9893   5  12   1.6249   2.6970   6.1992   0.3523   2.6146   1.2235   0.00    0.0
2012/07/24 00:09:14.000    447670.4332   3638116.9710   5202281.9741   5  12   1.6254   2.6940   6.1601   0.3321   2.5925   1.2170   0.00    0.0
2012/07/24 00:09:44.000    447670.5450   3638116.3133   5202280.8266   5  12   1.6260   2.6910   6.1208   0.3106   2.5704   1.2104   0.00    0.0
2012/07/24 00:10:14.000    447670.2297   3638116.2653   5202280.6938   5  12   1.6266   2.6880   6.0812   0.2875   2.5482   1.2037   0.00    0.0
2012/07/24 00:10:44.000    447670.5091   3638117.0862   5202280.3339   5  12   1.6272   2.6851   6.0413   0.2624   2.5262   1.1969   0.00    0.0
2012/07/24 00:11:14.000    447670.7409   3638117.2500   5202282.5558   5  13   1.6091   2.4880   5.9289   0.5499   2.3107   1.2828   0.00    0.0
2012/07/24 00:11:44.000    447670.9153   3638117.2498   5202279.4968   5  13   1.6107   2.4873   5.8936   0.5396   2.2955   1.2751   0.00    0.0
2012/07/24 00:12:14.000    447670.6352   3638116.3379   5202280.0332   5  13   1.6110   2.4865   5.8578   0.5283   2.2801   1.2664   0.00    0.0
2012/07/24 00:12:44.000    447670.7295   3638116.8641   5202281.9345   5  13   1.6114   2.4857   5.8218   0.5167   2.2648   1.2575   0.00    0.0
2012/07/24 00:13:14.000    447670.3466   3638116.4573   5202281.3693   5  13   1.6117   2.4850   5.7855   0.5049   2.2495   1.2486   0.00    0.0
2012/07/24 00:13:44.000    447671.0373   3638116.6822   5202280.1301   5  13   1.6121   2.4843   5.7491   0.4928   2.2342   1.2396   0.00    0.0
2012/07/24 00:14:14.000    447670.1313   3638116.8162   5202281.4767   5  13   1.6124   2.4836   5.7124   0.4805   2.2190   1.2305   0.00    0.0
2012/07/24 00:14:44.000    447670.6314   3638116.5612   5202279.7926   5  13   1.6142   2.4830   5.6765   0.4665   2.2035   1.2239   0.00    0.0
2012/07/24 00:15:14.000    447670.4919   3638116.7816   5202281.5356   5  13   1.6147   2.4824   5.6398   0.4533   2.1883   1.2151   0.00    0.0
2012/07/24 00:15:44.000    447670.0691   3638117.2764   5202282.7146   5  13   1.6153   2.4818   5.6030   0.4397   2.1733   1.2062   0.00    0.0
2012/07/24 00:16:14.000    447670.3004   3638116.8471   5202281.8211   5  13   1.6159   2.4812   5.5662   0.4258   2.1583   1.1973   0.00    0.0
2012/07/24 00:16:44.000    447670.1216   3638117.2707   5202280.6687   5  13   1.6166   2.4807   5.5294   0.4114   2.1434   1.1885   0.00    0.0
2012/07/24 00:17:14.000    447670.3766   3638116.7635   5202280.8412   5  13   1.6172   2.4802   5.4927   0.3965   2.1287   1.1796   0.00    0.0
2012/07/24 00:17:44.000    447670.2171   3638116.8695   5202282.2071   5  13   1.6179   2.4797   5.4560   0.3810   2.1140   1.1707   0.00    0.0
2012/07/24 00:18:14.000    447670.8020   3638117.0995   5202280.3068   5  13   1.6186   2.4793   5.4194   0.3650   2.0995   1.1619   0.00    0.0
2012/07/24 00:18:44.000    447670.4196   3638116.5546   5202281.1734   5  13   1.6194   2.4788   5.3830   0.3482   2.0851   1.1531   0.00    0.0
2012/07/24 00:19:14.000    447670.2912   3638116.7148   5202281.9813   5  13   1.6201   2.4785   5.3466   0.3307   2.0708   1.1443   0.00    0.0
2012/07/24 00:19:44.000    447670.0453   3638116.9621   5202282.3238   5  13   1.6209   2.4781   5.3105   0.3122   2.0567   1.1355   0.00    0.0
2012/07/24 00:20:14.000    447670.6699   3638116.7252   5202280.8814   5  13   1.6217   2.4777   5.2745   0.2927   2.0428   1.1268   0.00    0.0
2012/07/24 00:20:44.000    447669.7903   3638116.3251   5202281.3192   5  13   1.6226   2.4774   5.2387   0.2718   2.0290   1.1181   0.00    0.0
2012/07/24 00:21:14.000    447669.8997   3638116.8145   5202281.6759   5  12   1.7396   3.0788   5.2364   1.0975   2.2671   1.2647   0.00    0.0
2012/07/24 00:21:44.000    447670.5429   3638116.5874   5202280.3359   5  12   1.7386   3.0812   5.2014   1.0893   2.2563   1.2564   0.00    0.0
2012/07/24 00:22:14.000    447670.4102   3638117.2738   5202281.0765   5  12   1.7378   3.0836   5.1667   1.0810   2.2457   1.2481   0.00    0.0
2012/07/24 00:22:44.000    447670.4902   3638116.2484   5202281.1470   5  12   1.7369   3.0859   5.1322   1.0725   2.2352   1.2399   0.00    0.0
2012/07/24 00:23:14.000    447670.1971   3638116.7024   5202280.3103   5  13   1.7195   3.0864   3.4141   1.0759   2.3136   0.7819   0.00    0.0
2012/07/24 00:23:44.000    447670.2862   3638116.8189   5202281.1832   5  13   1.7189   3.0881   3.4123   1.0690   2.3151   0.7785   0.00    0.0
2012/07/24 00:24:14.000    447670.1791   3638116.1520   5202282.4302   5  13   1.7183   3.0897   3.4105   1.0620   2.3165   0.7750   0.00    0.0
2012/07/24 00:24:44.000    447670.1739   3638117.0632   5202281.1601   5  13   1.7177   3.0912   3.4086   1.0548   2.3178   0.7714   0.00    0.0
2012/07/24 00:25:14.000    447670.6974   3638116.1367   5202280.8481   5  13   1.7172   3.0926   3.4068   1.0476   2.3190   0.7678   0.00    0.0
2012/07/24 00:25:44.000    447670.8350   3638116.1964   5202281.1149   5  13   1.7166   3.0939   3.4049   1.0403   2.3201   0.7642   0.00    0.0
2012/07/24 00:26:14.000    447669.8971   3638116.2923   5202281.4449   5  13   1.7161   3.0950   3.4029   1.0329   2.3210   0.7605   0.00    0.0
2012/07/24 00:26:44.000    447670.4224   3638116.6672   5202280.5073   5  13   1.7157   3.0962   3.4010   1.0253   2.3218   0.7568   0.00    0.0
2012/07/24 00:27:14.000    447670.3579   3638116.4327   5202281.1842   5  13   1.7153   3.0971   3.3990   1.0177   2.3225   0.7530   0.00    0.0
2012/07/24 00:27:44.000    447670.3925   3638115.8377   5202281.5056   5  13   1.7149   3.0980   3.3970   1.0099   2.3231   0.7491   0.00    0.0
2012/07/24 00:28:14.000    447670.4824   3638116.4608   5202281.7990   5  13   1.7145   3.0987   3.3949   1.0021   2.3236   0.7452   0.00    0.0
2012/07/24 00:28:44.000    447669.9892   3638116.3996   5202280.1346   5  13   1.7142   3.0993   3.3929   0.9942   2.3240   0.7411   0.00    0.0
2012/07/24 00:29:14.000    447670.6506   3638117.2000   5202281.8090   5  13   1.7140   3.0997   3.3907   0.9861   2.3243   0.7371   0.00    0.0
2012/07/24 00:29:44.000    447670.5465   3638115.7356   5202280.9715   5  13   1.7137   3.1001   3.3886   0.9779   2.3245   0.7331   0.00    0.0
2012/07/24 00:30:14.000    447670.4404   3638116.5810   5202281.3597   5  13   1.7135   3.1003   3.3864   0.9697   2.3245   0.7290   0.00    0.0
2012/07/24 00:30:44.000    447670.3477   3638116.4358   5202281.6750   5  13   1.7133   3.1004   3.3842   0.9613   2.3245   0.7248   0.00    0.0
2012/07/24 00:31:14.000    447669.9818   3638116.5478   5202280.5871   5  13   1.7131   3.1004   3.3820   0.9528   2.3243   0.7206   0.00    0.0
2012/07/24 00:31:44.000    447669.9215   3638117.7828   5202282.4526   5  13   1.7131   3.1004   3.3893   0.9439   2.3223   0.7198   0.00    0.0
2012/07/24 00:32:14.000    447670.4240   3638116.0792   5202281.1983   5  13   1.7130   3.1002   3.3874   0.9351   2.3217   0.7157   0.00    0.0
2012/07/24 00:32:44.000    447670.4054   3638116.4668   5202280.5224   5  13   1.7130   3.0998   3.3855   0.9262   2.3210   0.7117   0.00    0.0
2012/07/24 00:33:14.000    447670.5953   3638115.9674   5202281.8780   5  13   1.7130   3.0994   3.3836   0.9172   2.3201   0.7076   0.00    0.0
2012/07/24 00:33:44.000    447670.0267   3638117.0124   5202281.8741   5  14   1.6371   2.8049   3.1942   1.2202   1.9790   1.0269   0.00    0.0
2012/07/24 00:34:14.000    447670.2030   3638116.5347   5202281.7592   5  14   1.6360   2.8041   3.1950   1.2153   1.9806   1.0239   0.00    0.0
2012/07/24 00:34:44.000    447670.7518   3638116.1958   5202281.0373   5  14   1.6350   2.8032   3.1957   1.2104   1.9821   1.0209   0.00    0.0
2012/07/24 00:35:14.000    447670.3556   3638116.6641   5202280.7984   5  14   1.6340   2.8022   3.1964   1.2054   1.9835   1.0177   0.00    0.0
2012/07/24 00:35:44.000    447670.8313   3638116.8319   5202280.7709   5  14   1.6330   2.8021   3.1984   1.2004   1.9865   1.0146   0.00    0.0
2012/07/24 00:36:14.000    447670.9328   3638117.1251   5202281.9288   5  14   1.7661   2.8101   3.4834   1.1299   2.0645   0.3041   0.00    0.0
2012/07/24 00:36:44.000    447670.3392   3638117.1925   5202281.3369   5  14   1.7648   2.8099   3.4912   1.1216   2.0702   0.2735   0.00    0.0
2012/07/24 00:37:14.000    447670.5445   3638115.8700   5202279.9450   5  14   1.7636   2.8096   3.4992   1.1132   2.0758   0.2388   0.00    0.0
2012/07/24 00:37:44.000    447671.0626   3638117.0840   5202280.8942   5  14   1.7624   2.8092   3.5071   1.1046   2.0815   0.1977   0.00    0.0
2012/07/24 00:38:14.000    447670.8323   3638117.3120   5202280.9365   5  14   1.7613   2.8089   3.5152   1.0959   2.0872   0.1449   0.00    0.0
2012/07/24 00:38:44.000    447671.0651   3638116.9114   5202280.8688   5  15   1.7246   2.8074   3.2570   1.0745   2.1178   0.6899   0.00    0.0
2012/07/24 00:39:14.000    447670.8705   3638116.7168   5202280.4819   5  15   1.7231   2.8071   3.2659   1.0655   2.1232   0.6783   0.00    0.0
2012/07/24 00:39:44.000    447670.7883   3638116.8930   5202280.8416   5  14   1.7309   3.1594   3.3045   1.1726   2.2743   0.7231   0.00    0.0
2012/07/24 00:40:14.000    447670.6578   3638117.0083   5202281.0640   5  14   1.7290   3.1588   3.3142   1.1607   2.2811   0.7106   0.00    0.0
2012/07/24 00:40:44.000    447670.5753   3638117.8413   5202280.9959   5  14   1.7271   3.1582   3.3240   1.1486   2.2880   0.6978   0.00    0.0
2012/07/24 00:41:14.000    447671.1619   3638118.3248   5202280.3950   5  14   1.7252   3.1577   3.3340   1.1364   2.2951   0.6847   0.00    0.0
2012/07/24 00:41:44.000    447670.9734   3638117.4539   5202279.7491   5  14   1.7234   3.1571   3.3440   1.1240   2.3021   0.6710   0.00    0.0
2012/07/24 00:42:14.000    447670.7505   3638117.4535   5202281.0076   5  14   1.7217   3.1565   3.3541   1.1115   2.3091   0.6569   0.00    0.0
2012/07/24 00:42:44.000    447670.8269   3638117.6299   5202279.8083   5  14   1.7201   3.1559   3.3642   1.0987   2.3162   0.6423   0.00    0.0
2012/07/24 00:43:14.000    447670.9176   3638117.9670   5202280.4750   5  14   1.7185   3.1553   3.3745   1.0857   2.3233   0.6271   0.00    0.0
2012/07/24 00:43:44.000    447670.7005   3638117.1357   5202280.3823   5  14   1.7169   3.1548   3.3848   1.0726   2.3305   0.6114   0.00    0.0
2012/07/24 00:44:14.000    447670.7222   3638118.1479   5202280.6186   5  14   1.7155   3.1542   3.3952   1.0592   2.3377   0.5950   0.00    0.0
2012/07/24 00:44:44.000    447670.7012   3638117.4182   5202280.1069   5  14   1.7141   3.1537   3.4057   1.0457   2.3450   0.5780   0.00    0.0
2012/07/24 00:45:14.000    447670.7936   3638117.7621   5202280.4034   5  14   1.7127   3.1531   3.4163   1.0319   2.3523   0.5602   0.00    0.0
2012/07/24 00:45:44.000    447670.5289   3638117.0725   5202281.0584   5  14   1.7115   3.1526   3.4270   1.0179   2.3597   0.5417   0.00    0.0
2012/07/24 00:46:14.000    447670.9106   3638118.4728   5202282.0936   5  14   1.7106   3.1534   3.4386   1.0052   2.3685   0.5248   0.00    0.0
2012/07/24 00:46:44.000    447670.3380   3638117.6190   5202280.2281   5  14   1.7095   3.1530   3.4495   0.9909   2.3761   0.5046   0.00    0.0
2012/07/24 00:47:14.000    447670.5783   3638117.4301   5202280.1858   5  14   1.7085   3.1526   3.4605   0.9763   2.3837   0.4833   0.00    0.0
2012/07/24 00:47:44.000    447670.8136   3638118.1508   5202280.6137   5  14   1.7075   3.1523   3.4716   0.9614   2.3913   0.4608   0.00    0.0
2012/07/24 00:48:14.000    447670.9332   3638117.6853   5202280.4651   5  14   1.7065   3.1520   3.4827   0.9462   2.3990   0.4368   0.00    0.0
2012/07/24 00:48:44.000    447670.5346   3638117.1832   5202280.3024   5  14   1.7057   3.1517   3.4939   0.9308   2.4067   0.4111   0.00    0.0
2012/07/24 00:49:14.000    447670.7121   3638118.0973   5202280.9503   5  14   1.7049   3.1514   3.5052   0.9151   2.4145   0.3833   0.00    0.0
2012/07/24 00:49:44.000    447670.1215   3638117.7588   5202280.6746   5  14   1.7042   3.1512   3.5166   0.8990   2.4223   0.3530   0.00    0.0
2012/07/24 00:50:14.000    447670.7278   3638117.2547   5202279.9065   5  14   1.7035   3.1510   3.5281   0.8826   2.4301   0.3194   0.00    0.0
2012/07/24 00:50:44.000    447670.3575   3638117.7056   5202281.0515   5  13   1.7049   3.1521   3.5473   0.8615   2.4424   0.2453   0.00    0.0
2012/07/24 00:51:14.000    447670.2379   3638117.5698   5202280.8022   5  13   1.7044   3.1520   3.5591   0.8442   2.4505   0.1915   0.00    0.0
2012/07/24 00:51:44.000    447670.5869   3638117.2523   5202280.4226   5  13   1.7040   3.1520   3.5710   0.8264   2.4587   0.1137   0.00    0.0
2012/07/24 00:52:14.000    447671.2650   3638117.7666   5202280.5781   5  13   1.7036   3.1520   3.5830   0.8082   2.4669  -0.1054   0.00    0.0
2012/07/24 00:52:44.000    447669.9569   3638117.4472   5202280.6138   5  13   1.7034   3.1520   3.5950   0.7895   2.4751  -0.1882   0.00    0.0
2012/07/24 00:53:14.000    447670.6607   3638118.1953   5202280.6950   5  13   1.7032   3.1521   3.6071   0.7703   2.4834  -0.2450   0.00    0.0
2012/07/24 00:53:44.000    447670.5697   3638117.8703   5202280.3651   5  13   1.7030   3.1522   3.6193   0.7506   2.4917  -0.2913   0.00    0.0
2012/07/24 00:54:14.000    447670.4461   3638117.4698   5202280.1891   5  13   1.7030   3.1523   3.6316   0.7302   2.5000  -0.3316   0.00    0.0
2012/07/24 00:54:44.000    447670.9009   3638117.4949   5202279.8188   5  13   1.7030   3.1525   3.6439   0.7093   2.5084  -0.3679   0.00    0.0
2012/07/24 00:55:14.000    447669.8705   3638117.9086   5202280.5060   5  13   1.7031   3.1527   3.6563   0.6876   2.5168  -0.4013   0.00    0.0
2012/07/24 00:55:44.000    447671.1029   3638117.8811   5202280.6090   5  13   1.7039   3.1529   3.6689   0.6649   2.5252  -0.4302   0.00    0.0
2012/07/24 00:56:14.000    447670.7846   3638118.1092   5202279.8310   5  13   1.7042   3.1532   3.6815   0.6416   2.5337  -0.4595   0.00    0.0
2012/07/24 00:56:44.000    447671.1422   3638117.1799   5202279.7841   5  13   1.7046   3.1536   3.6940   0.6174   2.5422  -0.4873   0.00    0.0
2012/07/24 00:57:14.000    447670.3949   3638117.8748   5202280.3581   5  13   1.7050   3.1539   3.7067   0.5921   2.5507  -0.5139   0.00    0.0
2012/07/24 00:57:44.000    447670.6144   3638117.3090   5202281.1016   5  13   1.7055   3.1544   3.7193   0.5656   2.5593  -0.5394   0.00    0.0
2012/07/24 00:58:14.000    447670.6378   3638117.9371   5202280.6148   5  13   1.7061   3.1548   3.7321   0.5377   2.5679  -0.5640   0.00    0.0
2012/07/24 00:58:44.000    447670.5740   3638117.6868   5202280.5677   5  13   1.7068   3.1555   3.7448   0.5080   2.5765  -0.5878   0.00    0.0
2012/07/24 00:59:14.000    447670.4418   3638117.9265   5202280.1398   5  13   1.7075   3.1561   3.7576   0.4766   2.5852  -0.6108   0.00    0.0
2012/07/24 00:59:44.000    447670.6790   3638118.0628   5202281.0256   5  13   1.7083   3.1567   3.7705   0.4429   2.5938  -0.6333   0.00    0.0
2012/07/24 01:00:14.000    447671.1218   3638116.9491   5202279.9190   5  13   1.7092   3.1574   3.7834   0.4063   2.6025  -0.6551   0.00    0.0
2012/07/24 01:00:44.000    447670.8803   3638118.0903   5202280.8587   5  13   1.7102   3.1581   3.7963   0.3660   2.6112  -0.6765   0.00    0.0
2012/07/24 01:01:14.000    447670.8679   3638118.4264   5202280.5306   5  13   1.7112   3.1588   3.8092   0.3205   2.6199  -0.6974   0.00    0.0
2012/07/24 01:01:44.000    447670.3916   3638117.0698   5202280.8189   5  13   1.7124   3.1596   3.8222   0.2673   2.6287  -0.7178   0.00    0.0
2012/07/24 01:02:14.000    447670.7477   3638117.8513   5202281.1783   5  13   1.7135   3.1604   3.8352   0.2002   2.6374  -0.7378   0.00    0.0
2012/07/24 01:02:44.000    447670.6622   3638117.7578   5202281.0800   5  13   1.7150   3.1613   3.8489   0.0916   2.6463  -0.7586   0.00    0.0
2012/07/24 01:03:14.000    447670.7870   3638117.2203   5202281.4081   5  13   1.7163   3.1622   3.8620  -0.1521   2.6551  -0.7780   0.00    0.0
2012/07/24 01:03:44.000    447670.5225   3638117.3659   5202280.1213   5  13   1.7178   3.1632   3.8751  -0.2339   2.6639  -0.7971   0.00    0.0
2012/07/24 01:04:14.000    447671.1115   3638117.4948   5202281.3468   5  13   1.7193   3.1642   3.8882  -0.2939   2.6726  -0.8158   0.00    0.0
2012/07/24 01:04:44.000    447670.8618   3638116.6054   5202280.5545   5  13   1.9783   3.2602   4.2689   0.8025   2.9229   0.9976   0.00    0.0
2012/07/24 01:05:14.000    447671.0872   3638118.0233   5202281.0271   5  13   1.9775   3.2625   4.2894   0.7835   2.9354   0.9884   0.00    0.0
2012/07/24 01:05:44.000    447670.6659   3638117.1091   5202279.9631   5  13   1.9767   3.2650   4.3100   0.7640   2.9478   0.9790   0.00    0.0
2012/07/24 01:06:14.000    447670.7350   3638117.8031   5202281.3789   5  13   1.9760   3.2674   4.3307   0.7438   2.9603   0.9693   0.00    0.0
2012/07/24 01:06:44.000    447670.9936   3638117.8801   5202281.0804   5  13   1.9754   3.2699   4.3514   0.7230   2.9728   0.9593   0.00    0.0
2012/07/24 01:07:14.000    447670.9127   3638117.8594   5202280.7780   5  13   1.9748   3.2725   4.3722   0.7016   2.9853   0.9489   0.00    0.0
2012/07/24 01:07:44.000    447670.6357   3638117.6265   5202280.7633   5  13   1.9742   3.2752   4.3930   0.6793   2.9979   0.9381   0.00    0.0
2012/07/24 01:08:14.000    447670.8569   3638118.0316   5202280.4073   5  13   1.9737   3.2779   4.4138   0.6563   3.0105   0.9270   0.00    0.0
2012/07/24 01:08:44.000    447670.6609   3638118.1635   5202281.5008   5  13   1.9732   3.2807   4.4346   0.6323   3.0230   0.9155   0.00    0.0
2012/07/24 01:09:14.000    447670.3264   3638117.4561   5202280.8404   5  13   1.9728   3.2835   4.4555   0.6073   3.0356   0.9037   0.00    0.0
2012/07/24 01:09:44.000    447670.7089   3638117.1910   5202280.3012   5  13   1.9724   3.2864   4.4764   0.5811   3.0481   0.8914   0.00    0.0
2012/07/24 01:10:14.000    447670.6452   3638117.6732   5202281.1270   5  13   1.9721   3.2893   4.4973   0.5535   3.0607   0.8787   0.00    0.0
2012/07/24 01:10:44.000    447669.8167   3638117.0627   5202280.3914   5  13   1.9719   3.2923   4.5181   0.5244   3.0732   0.8655   0.00    0.0
2012/07/24 01:11:14.000    447670.4468   3638118.1137   5202280.8794   5  13   1.9716   3.2953   4.5389   0.4935   3.0857   0.8518   0.00    0.0
2012/07/24 01:11:44.000    447670.2336   3638117.8429   5202281.7319   5  13   1.9715   3.2984   4.5597   0.4603   3.0982   0.8377   0.00    0.0
2012/07/24 01:12:14.000    447670.6122   3638116.1759   5202280.1581   5  13   1.9714   3.3015   4.5805   0.4245   3.1106   0.8231   0.00    0.0
2012/07/24 01:12:44.000    447670.4614   3638117.9686   5202280.7046   5  13   1.9713   3.3047   4.6012   0.3851   3.1230   0.8079   0.00    0.0
2012/07/24 01:13:14.000    447670.4326   3638117.6419   5202280.5127   5  13   1.9734   3.3118   4.6238   0.3189   3.1388   0.7843   0.00    0.0
2012/07/24 01:13:44.000    447670.1665   3638117.8593   5202281.6138   5  13   1.9737   3.3154   4.6445   0.2608   3.1514   0.7670   0.00    0.0
2012/07/24 01:14:14.000    447670.8195   3638118.3347   5202281.5068   5  13   1.9740   3.3190   4.6651   0.1850   3.1640   0.7489   0.00    0.0
2012/07/24 01:14:44.000    447670.5402   3638117.7954   5202281.2467   5  13   1.7705   3.1999   4.1581  -0.8841   2.8560  -1.1638   0.00    0.0
2012/07/24 01:15:14.000    447670.6552   3638117.0691   5202280.7078   5  13   1.7738   3.2021   4.1702  -0.9032   2.8642  -1.1784   0.00    0.0
2012/07/24 01:15:44.000    447670.4862   3638117.7216   5202280.4906   5  13   1.7771   3.2044   4.1821  -0.9218   2.8724  -1.1928   0.00    0.0
2012/07/24 01:16:14.000    447670.2113   3638117.1309   5202280.2187   5  13   1.7805   3.2066   4.1939  -0.9400   2.8804  -1.2070   0.00    0.0
2012/07/24 01:16:44.000    447670.6071   3638117.5682   5202279.8119   5  12   1.9815   3.3410   4.7807  -0.3393   3.2339   0.6855   0.00    0.0
2012/07/24 01:17:14.000    447669.7886   3638117.4541   5202280.6888   5  12   1.9822   3.3448   4.8008  -0.3866   3.2460   0.6638   0.00    0.0
2012/07/24 01:17:44.000    447670.5165   3638117.9428   5202279.6168   5  11   2.0329   3.4417   5.8189   0.4154   3.6338   1.3682   0.00    0.0
2012/07/24 01:18:14.000    447670.0602   3638116.7144   5202279.8932   5  11   2.0333   3.4509   5.8670   0.3836   3.6612   1.3644   0.00    0.0
2012/07/24 01:18:44.000    447669.9939   3638117.5594   5202280.5283   5  11   2.0336   3.4602   5.9154   0.3487   3.6889   1.3603   0.00    0.0
2012/07/24 01:19:14.000    447670.4731   3638117.7059   5202281.1688   5  12   1.9992   3.2955   4.0691  -0.5577   3.0131   0.4525   0.00    0.0
2012/07/24 01:19:44.000    447670.4726   3638117.5816   5202280.8619   5  12   1.9999   3.3011   4.0945  -0.5838   3.0296   0.4263   0.00    0.0
2012/07/24 01:20:14.000    447671.0449   3638118.8008   5202282.5610   5  12   2.0007   3.3068   4.1201  -0.6089   3.0463   0.3980   0.00    0.0
2012/07/24 01:20:44.000    447670.3602   3638118.7555   5202282.5782   5  12   2.0015   3.3126   4.1459  -0.6332   3.0630   0.3668   0.00    0.0
2012/07/24 01:21:14.000    447671.0795   3638118.3270   5202283.8651   5  12   2.0023   3.3186   4.1720  -0.6566   3.0799   0.3321   0.00    0.0
2012/07/24 01:21:44.000    447670.4083   3638118.1075   5202282.1653   5  12   2.0032   3.3246   4.1983  -0.6793   3.0969   0.2926   0.00    0.0
2012/07/24 01:22:14.000    447670.5562   3638118.1390   5202282.4272   5  12   2.0041   3.3308   4.2247  -0.7014   3.1140   0.2460   0.00    0.0
2012/07/24 01:22:44.000    447670.3990   3638117.6933   5202281.1259   5  12   2.0051   3.3371   4.2514  -0.7229   3.1313   0.1870   0.00    0.0
2012/07/24 01:23:14.000    447670.3139   3638118.1355   5202282.3754   5  12   2.0061   3.3435   4.2782  -0.7439   3.1486   0.0946   0.00    0.0
2012/07/24 01:23:44.000    447669.9714   3638117.4257   5202281.8702   5  12   2.0071   3.3501   4.3053  -0.7644   3.1660  -0.1323   0.00    0.0
2012/07/24 01:24:14.000    447670.8897   3638118.4701   5202283.2399   5  12   2.0082   3.3567   4.3325  -0.7844   3.1836  -0.2107   0.00    0.0
2012/07/24 01:24:44.000    447670.2813   3638117.6752   5202281.8427   5  12   2.0094   3.3634   4.3598  -0.8041   3.2012  -0.2678   0.00    0.0
2012/07/24 01:25:14.000    447669.9180   3638117.6603   5202281.5010   5  12   2.0105   3.3703   4.3873  -0.8234   3.2189  -0.3155   0.00    0.0
2012/07/24 01:25:44.000    447670.8077   3638118.2926   5202282.7777   5  12   2.0118   3.3772   4.4149  -0.8423   3.2366  -0.3575   0.00    0.0
2012/07/24 01:26:14.000    447670.9753   3638118.8674   5202282.8460   5  12   2.0131   3.3842   4.4427  -0.8609   3.2544  -0.3956   0.00    0.0
2012/07/24 01:26:44.000    447670.7851   3638118.2895   5202282.1128   5  12   2.0144   3.3913   4.4706  -0.8792   3.2723  -0.4308   0.00    0.0
2012/07/24 01:27:14.000    447670.7328   3638118.0413   5202282.7392   5  12   2.0158   3.3985   4.4985  -0.8973   3.2902  -0.4639   0.00    0.0
2012/07/24 01:27:44.000    447670.9974   3638118.6076   5202282.4653   5  12   2.0172   3.4058   4.5266  -0.9150   3.3082  -0.4952   0.00    0.0
2012/07/24 01:28:14.000    447670.1147   3638117.9653   5202281.9563   5  12   2.0186   3.4131   4.5547  -0.9325   3.3261  -0.5250   0.00    0.0
2012/07/24 01:28:44.000    447670.4351   3638117.8385   5202282.1103   5  12   2.0201   3.4205   4.5828  -0.9498   3.3441  -0.5537   0.00    0.0
2012/07/24 01:29:14.000    447670.2500   3638117.2670   5202281.8273   5  12   2.0217   3.4280   4.6110  -0.9668   3.3621  -0.5812   0.00    0.0
2012/07/24 01:29:44.000    447670.5685   3638118.1948   5202282.3924   5  12   2.0233   3.4355   4.6392  -0.9836   3.3800  -0.6079   0.00    0.0
2012/07/24 01:30:14.000    447670.8048   3638118.2143   5202282.2409   5  12   2.0249   3.4431   4.6674  -1.0002   3.3979  -0.6338   0.00    0.0
2012/07/24 01:30:44.000    447670.2590   3638117.4823   5202282.0602   5  12   2.0266   3.4507   4.6956  -1.0166   3.4158  -0.6589   0.00    0.0
2012/07/24 01:31:14.000    447670.0480   3638118.3309   5202282.4145   5  12   2.0284   3.4583   4.7238  -1.0328   3.4336  -0.6834   0.00    0.0
2012/07/24 01:31:44.000    447669.9960   3638117.2396   5202281.8553   5  12   2.0301   3.4659   4.7518  -1.0488   3.4513  -0.7073   0.00    0.0
2012/07/24 01:32:14.000    447670.1114   3638117.4307   5202281.7114   5  12   2.0320   3.4736   4.7798  -1.0646   3.4690  -0.7306   0.00    0.0
2012/07/24 01:32:44.000    447670.5158   3638117.9603   5202283.2871   5  12   2.0338   3.4812   4.8077  -1.0802   3.4865  -0.7535   0.00    0.0
2012/07/24 01:33:14.000    447669.7534   3638118.4382   5202282.9844   5  12   2.0358   3.4889   4.8354  -1.0957   3.5039  -0.7759   0.00    0.0
2012/07/24 01:33:44.000    447670.2445   3638117.4391   5202281.5142   5  12   2.0377   3.4965   4.8630  -1.1110   3.5212  -0.7978   0.00    0.0
2012/07/24 01:34:14.000    447669.8431   3638117.9145   5202281.5403   5  12   2.0397   3.5041   4.8904  -1.1261   3.5383  -0.8193   0.00    0.0
2012/07/24 01:34:44.000    447670.7305   3638118.7521   5202283.4218   5  12   2.0418   3.5117   4.9176  -1.1411   3.5552  -0.8404   0.00    0.0
2012/07/24 01:35:14.000    447670.8591   3638118.3796   5202283.6849   5  12   2.0439   3.5192   4.9445  -1.1559   3.5719  -0.8611   0.00    0.0
2012/07/24 01:35:44.000    447670.0067   3638119.5002   5202284.1689   5  12   2.0460   3.5267   4.9711  -1.1705   3.5885  -0.8814   0.00    0.0
2012/07/24 01:36:14.000    447670.2798   3638117.7931   5202281.2796   5  12   2.0482   3.5341   4.9975  -1.1850   3.6047  -0.9013   0.00    0.0
2012/07/24 01:36:44.000    447670.4170   3638119.4288   5202283.0590   5  12   2.0504   3.5414   5.0235  -1.1993   3.6207  -0.9209   0.00    0.0
2012/07/24 01:37:14.000    447669.7004   3638117.5484   5202281.8333   5  12   2.0527   3.5486   5.0492  -1.2134   3.6365  -0.9401   0.00    0.0
2012/07/24 01:37:44.000    447670.4605   3638119.2176   5202283.0302   5  12   2.0550   3.5557   5.0745  -1.2274   3.6519  -0.9590   0.00    0.0
2012/07/24 01:38:14.000    447669.6771   3638117.8001   5202282.1964   5  12   2.0574   3.5627   5.0994  -1.2412   3.6670  -0.9775   0.00    0.0
2012/07/24 01:38:44.000    447669.8349   3638118.4024   5202282.2309   5  12   2.0597   3.5696   5.1238  -1.2549   3.6817  -0.9956   0.00    0.0
2012/07/24 01:39:14.000    447669.9892   3638117.8170   5202281.9847   5  12   2.0622   3.5763   5.1477  -1.2683   3.6961  -1.0134   0.00    0.0
2012/07/24 01:39:44.000    447670.4406   3638118.6765   5202282.5904   5  12   2.0646   3.5828   5.1711  -1.2816   3.7101  -1.0308   0.00    0.0
2012/07/24 01:40:14.000    447670.5020   3638118.1536   5202283.5679   5  12   2.0671   3.5892   5.1939  -1.2948   3.7237  -1.0479   0.00    0.0
2012/07/24 01:40:44.000    447670.0929   3638119.0504   5202283.6066   5  12   2.0697   3.5955   5.2162  -1.3077   3.7368  -1.0646   0.00    0.0
2012/07/24 01:41:14.000    447669.9595   3638118.3478   5202282.8528   5  12   2.0723   3.6015   5.2378  -1.3205   3.7495  -1.0809   0.00    0.0
2012/07/24 01:41:44.000    447670.4247   3638118.7390   5202283.1358   5  12   2.0749   3.6073   5.2588  -1.3331   3.7616  -1.0969   0.00    0.0
2012/07/24 01:42:14.000    447670.1830   3638118.7867   5202283.3428   5  12   2.0775   3.6129   5.2791  -1.3455   3.7733  -1.1124   0.00    0.0
2012/07/24 01:42:44.000    447670.0125   3638117.9185   5202282.3793   5  12   2.0802   3.6183   5.2987  -1.3577   3.7845  -1.1276   0.00    0.0
2012/07/24 01:43:14.000    447670.1268   3638117.7002   5202281.9249   5  12   2.0829   3.6234   5.3175  -1.3698   3.7950  -1.1424   0.00    0.0
2012/07/24 01:43:44.000    447669.9131   3638117.4819   5202281.4410   5  12   2.0857   3.6283   5.3355  -1.3816   3.8051  -1.1567   0.00    0.0
2012/07/24 01:44:14.000    447670.5515   3638118.9992   5202283.2704   5  12   2.0884   3.6329   5.3528  -1.3932   3.8145  -1.1707   0.00    0.0
2012/07/24 01:44:44.000    447669.6971   3638118.0812   5202282.1411   5  12   2.0912   3.6373   5.3692  -1.4047   3.8233  -1.1842   0.00    0.0
2012/07/24 01:45:14.000    447670.1916   3638118.5832   5202283.1225   5  12   2.0940   3.6414   5.3847  -1.4159   3.8315  -1.1973   0.00    0.0
2012/07/24 01:45:44.000    447670.0157   3638117.8886   5202282.4517   5  12   2.0969   3.6451   5.3993  -1.4270   3.8390  -1.2100   0.00    0.0
2012/07/24 01:46:14.000    447670.7132   3638119.9784   5202283.7550   5  11   2.2414   5.2774   6.3158   0.9606   5.2152   1.0287   0.00    0.0
2012/07/24 01:46:44.000    447670.5158   3638121.1168   5202284.4847   5  11   2.2391   5.2959   6.3463   0.9240   5.2406   1.0053   0.00    0.0
2012/07/24 01:47:14.000    447670.5917   3638120.6830   5202285.1695   5  11   2.2368   5.3140   6.3755   0.8856   5.2652   0.9810   0.00    0.0
2012/07/24 01:47:44.000    447670.7736   3638121.7000   5202285.7464   5  11   2.2347   5.3316   6.4035   0.8451   5.2887   0.9557   0.00    0.0
2012/07/24 01:48:14.000    447670.3502   3638118.5643   5202283.2705   5  10   2.7747   9.1275   9.8822   3.5816   9.1493   3.6366   0.00    0.0
2012/07/24 01:48:44.000    447670.0379   3638119.6054   5202283.7999   5  10   2.7687   9.2291  10.0097   3.5897   9.2674   3.6547   0.00    0.0
2012/07/24 01:49:14.000    447670.3327   3638119.1716   5202283.4084   5  10   2.7625   9.3296  10.1353   3.5968   9.3838   3.6712   0.00    0.0
2012/07/24 01:49:44.000    447670.5164   3638120.4284   5202284.5690   5  10   2.7560   9.4287  10.2585   3.6025   9.4981   3.6862   0.00    0.0
2012/07/24 01:50:14.000    447669.7335   3638118.6011   5202283.2163   5  10   2.7494   9.5258  10.3788   3.6068   9.6098   3.6993   0.00    0.0
2012/07/24 01:50:44.000    447670.0957   3638118.8883   5202282.5222   5  10   2.7425   9.6206  10.4957   3.6094   9.7185   3.7105   0.00    0.0
2012/07/24 01:51:14.000    447669.7144   3638117.6302   5202281.8017   5  10   2.7353   9.7126  10.6084   3.6102   9.8235   3.7195   0.00    0.0
2012/07/24 01:51:44.000    447669.9200   3638117.8220   5202282.1294   5  10   2.7278   9.8012  10.7166   3.6091   9.9243   3.7262   0.00    0.0
2012/07/24 01:52:14.000    447670.1890   3638118.1123   5202283.0228   5  10   2.7200   9.8860  10.8195   3.6059  10.0205   3.7304   0.00    0.0
2012/07/24 01:52:44.000    447670.1766   3638119.0733   5202284.0142   5  10   2.7119   9.9664  10.9165   3.6003  10.1113   3.7319   0.00    0.0
2012/07/24 01:53:14.000    447670.4965   3638120.5527   5202284.6319   5  10   2.7034  10.0421  11.0071   3.5923  10.1963   3.7306   0.00    0.0
2012/07/24 01:53:44.000    447670.2514   3638116.4773   5202281.6512   5  11   2.1045   4.6697   6.2358  -1.5056   4.8279  -1.2448   0.00    0.0
2012/07/24 01:54:14.000    447669.2669   3638116.5208   5202281.4904   5  11   2.1074   4.6842   6.2574  -1.5188   4.8470  -1.2510   0.00    0.0
2012/07/24 01:54:44.000    447669.6559   3638117.0848   5202282.2615   5  12   1.8756   3.1187   5.0830   1.0261   3.2746   1.4084   0.00    0.0
2012/07/24 01:55:14.000    447670.1398   3638118.2478   5202282.5968   5  12   1.8755   3.1280   5.1039   1.0231   3.2926   1.4132   0.00    0.0
2012/07/24 01:55:44.000    447669.4045   3638116.8378   5202281.4621   5  12   1.8754   3.1372   5.1241   1.0200   3.3102   1.4177   0.00    0.0
2012/07/24 01:56:14.000    447669.5569   3638116.5508   5202280.4780   5  12   1.8754   3.1462   5.1435   1.0167   3.3273   1.4219   0.00    0.0
2012/07/24 01:56:44.000    447668.8177   3638116.8845   5202281.3128   5  12   1.8753   3.1552   5.1622   1.0133   3.3439   1.4258   0.00    0.0
2012/07/24 01:57:14.000    447669.5705   3638117.0818   5202282.0380   5  12   1.8753   3.1640   5.1800   1.0096   3.3599   1.4293   0.00    0.0
2012/07/24 01:57:44.000    447669.2309   3638116.0372   5202280.3133   5  12   1.8753   3.1726   5.1969   1.0058   3.3754   1.4325   0.00    0.0
2012/07/24 01:58:14.000    447668.9746   3638115.7116   5202281.0601   5  12   1.8753   3.1811   5.2130   1.0018   3.3903   1.4353   0.00    0.0
2012/07/24 01:58:44.000    447669.9507   3638117.0161   5202282.3477   5  12   1.8754   3.1894   5.2282   0.9976   3.4047   1.4378   0.00    0.0
2012/07/24 01:59:14.000    447669.5006   3638117.1415   5202281.9090   5  13   1.8754   2.9064   5.1088   1.0054   3.1809   1.4474   0.00    0.0
2012/07/24 01:59:44.000    447669.6561   3638116.9431   5202281.8860   5  13   1.8754   2.9162   5.1237   1.0034   3.1967   1.4506   0.00    0.0
2012/07/24 02:00:14.000    447669.5562   3638116.4436   5202281.2359   5  13   1.8755   2.9260   5.1378   1.0011   3.2119   1.4535   0.00    0.0
2012/07/24 02:00:44.000    447669.9273   3638117.3653   5202282.6536   5  13   1.8755   2.9355   5.1510   0.9986   3.2266   1.4560   0.00    0.0
2012/07/24 02:01:14.000    447669.7546   3638116.4116   5202280.8293   5  13   1.8756   2.9449   5.1632   0.9959   3.2407   1.4581   0.00    0.0
2012/07/24 02:01:44.000    447669.9185   3638117.5229   5202281.8093   5  13   1.8757   2.9541   5.1745   0.9930   3.2542   1.4598   0.00    0.0
2012/07/24 02:02:14.000    447669.7751   3638116.5320   5202281.7592   5  13   1.8757   2.9631   5.1848   0.9899   3.2671   1.4611   0.00    0.0
2012/07/24 02:02:44.000    447669.3055   3638117.2012   5202281.7635   5  13   1.8758   2.9719   5.1941   0.9865   3.2794   1.4620   0.00    0.0
2012/07/24 02:03:14.000    447669.9884   3638117.7532   5202282.4723   5  13   1.8759   2.9805   5.2023   0.9828   3.2909   1.4624   0.00    0.0
2012/07/24 02:03:44.000    447669.5859   3638117.1253   5202280.5146   5  13   1.8760   2.9888   5.2096   0.9789   3.3018   1.4625   0.00    0.0
2012/07/24 02:04:14.000    447669.8220   3638117.3351   5202282.2944   5  13   1.8761   2.9969   5.2158   0.9748   3.3121   1.4622   0.00    0.0
2012/07/24 02:04:44.000    447669.8632   3638116.8877   5202281.6995   5  13   1.8763   3.0047   5.2209   0.9703   3.3216   1.4615   0.00    0.0
2012/07/24 02:05:14.000    447669.5252   3638116.2426   5202280.2057   5  13   1.8764   3.0123   5.2250   0.9656   3.3305   1.4603   0.00    0.0
2012/07/24 02:05:44.000    447668.9736   3638116.6578   5202280.7221   5  13   1.8765   3.0196   5.2280   0.9606   3.3386   1.4587   0.00    0.0
2012/07/24 02:06:14.000    447669.2180   3638117.0607   5202281.3727   5  13   1.8767   3.0266   5.2300   0.9553   3.3460   1.4568   0.00    0.0
2012/07/24 02:06:44.000    447670.0998   3638116.3491   5202281.4392   5  13   1.8768   3.0334   5.2309   0.9498   3.3527   1.4544   0.00    0.0
2012/07/24 02:07:14.000    447669.9676   3638116.4532   5202281.6984   5  13   1.8770   3.0398   5.2307   0.9439   3.3587   1.4516   0.00    0.0
2012/07/24 02:07:44.000    447669.5984   3638116.1566   5202280.9087   5  13   1.8771   3.0460   5.2294   0.9376   3.3639   1.4484   0.00    0.0
2012/07/24 02:08:14.000    447669.4459   3638117.0663   5202281.7995   5  13   1.8773   3.0519   5.2271   0.9311   3.3685   1.4448   0.00    0.0
2012/07/24 02:08:44.000    447669.8091   3638117.0967   5202282.2197   5  13   1.8775   3.0575   5.2237   0.9243   3.3723   1.4408   0.00    0.0
2012/07/24 02:09:14.000    447669.8423   3638118.0435   5202281.7861   5  13   1.8777   3.0627   5.2193   0.9171   3.3753   1.4364   0.00    0.0
2012/07/24 02:09:44.000    447669.1721   3638116.3508   5202281.4819   5  13   1.8779   3.0677   5.2138   0.9096   3.3777   1.4316   0.00    0.0
2012/07/24 02:10:14.000    447670.1606   3638117.7319   5202282.1039   5  13   1.8781   3.0724   5.2074   0.9017   3.3794   1.4264   0.00    0.0
2012/07/24 02:10:44.000    447669.2958   3638116.9979   5202282.3483   5  13   1.8784   3.0767   5.1999   0.8935   3.3803   1.4209   0.00    0.0
2012/07/24 02:11:14.000    447669.8559   3638117.3007   5202283.3614   5  13   1.8786   3.0808   5.1914   0.8850   3.3806   1.4150   0.00    0.0
2012/07/24 02:11:44.000    447669.0756   3638117.3908   5202281.8260   5  13   1.8789   3.0846   5.1820   0.8761   3.3801   1.4088   0.00    0.0
2012/07/24 02:12:14.000    447669.7183   3638117.8621   5202282.3506   5  13   1.8792   3.0881   5.1716   0.8669   3.3790   1.4022   0.00    0.0
2012/07/24 02:12:44.000    447669.6421   3638116.7882   5202281.8607   5  13   1.8795   3.0912   5.1603   0.8573   3.3773   1.3952   0.00    0.0
2012/07/24 02:13:14.000    447669.9207   3638117.0844   5202282.3750   5  13   1.8798   3.0941   5.1481   0.8473   3.3748   1.3880   0.00    0.0
2012/07/24 02:13:44.000    447669.5522   3638117.2860   5202281.9108   5  13   1.8802   3.0968   5.1351   0.8370   3.3718   1.3804   0.00    0.0
2012/07/24 02:14:14.000    447669.7234   3638117.8126   5202282.0198   5  13   1.8805   3.0991   5.1212   0.8263   3.3681   1.3725   0.00    0.0
2012/07/24 02:14:44.000    447669.9307   3638116.9509   5202282.4432   5  13   1.8809   3.1011   5.1065   0.8152   3.3638   1.3643   0.00    0.0
2012/07/24 02:15:14.000    447669.4168   3638116.9042   5202282.2870   5  13   1.8813   3.1029   5.0910   0.8038   3.3589   1.3559   0.00    0.0
2012/07/24 02:15:44.001    447669.4934   3638116.7566   5202281.0386   5  13   1.8818   3.1045   5.0747   0.7919   3.3534   1.3471   0.00    0.0
2012/07/24 02:16:14.000    447669.5967   3638117.1390   5202281.4792   5  13   1.8823   3.1058   5.0577   0.7797   3.3474   1.3381   0.00    0.0
2012/07/24 02:16:44.000    447669.7026   3638117.9610   5202283.1240   5  13   1.8828   3.1068   5.0400   0.7670   3.3408   1.3289   0.00    0.0
2012/07/24 02:17:14.000    447669.4182   3638116.1395   5202280.9231   5  13   1.8833   3.1076   5.0216   0.7539   3.3337   1.3194   0.00    0.0
2012/07/24 02:17:44.000    447670.1731   3638117.3236   5202282.6580   5  13   1.8839   3.1082   5.0026   0.7404   3.3261   1.3096   0.00    0.0
2012/07/24 02:18:14.000    447669.4304   3638116.1888   5202281.6061   5  13   1.8845   3.1086   4.9830   0.7265   3.3181   1.2997   0.00    0.0
2012/07/24 02:18:44.000    447669.6631   3638117.8042   5202283.6750   5  13   1.8851   3.1087   4.9629   0.7121   3.3096   1.2895   0.00    0.0
2012/07/24 02:19:14.000    447669.4095   3638116.8097   5202282.2528   5  13   1.8858   3.1087   4.9422   0.6972   3.3006   1.2792   0.00    0.0
2012/07/24 02:19:44.000    447669.8593   3638117.2296   5202281.9093   5  13   1.8865   3.1085   4.9210   0.6818   3.2912   1.2687   0.00    0.0
2012/07/24 02:20:14.000    447669.3895   3638116.6821   5202281.8674   5  13   1.8872   3.1081   4.8993   0.6659   3.2814   1.2580   0.00    0.0
2012/07/24 02:20:44.000    447669.6254   3638117.8705   5202282.8752   5  13   1.8880   3.1075   4.8771   0.6495   3.2712   1.2471   0.00    0.0
2012/07/24 02:21:14.000    447669.1907   3638117.5424   5202282.9046   5  13   2.2362   3.8314   5.0523  -1.5113   3.7107  -0.3835   0.00    0.0
2012/07/24 02:21:44.000    447669.4124   3638117.6642   5202282.2855   5  13   2.2410   3.8243   5.0203  -1.5199   3.6883  -0.3768   0.00    0.0
2012/07/24 02:22:14.000    447669.5653   3638117.1995   5202282.2792   5  13   2.2459   3.8172   4.9883  -1.5284   3.6656  -0.3699   0.00    0.0
2012/07/24 02:22:44.000    447669.3087   3638117.3159   5202282.1086   5  13   2.2509   3.8099   4.9563  -1.5370   3.6427  -0.3626   0.00    0.0
2012/07/24 02:23:14.000    447668.7802   3638117.9578   5202283.0286   5  13   2.2559   3.8027   4.9241  -1.5455   3.6197  -0.3549   0.00    0.0
2012/07/24 02:23:44.000    447669.8722   3638117.4373   5202282.3916   5  13   2.2610   3.7955   4.8920  -1.5540   3.5966  -0.3469   0.00    0.0
2012/07/24 02:24:14.000    447669.4762   3638118.1364   5202283.0286   5  13   2.2661   3.7882   4.8599  -1.5625   3.5734  -0.3385   0.00    0.0
2012/07/24 02:24:44.000    447669.7302   3638117.3145   5202282.4853   5  14   2.2083   3.5227   4.3438  -1.3184   3.1161   1.0053   0.00    0.0
2012/07/24 02:25:14.000    447669.5614   3638117.1980   5202282.5039   5  14   2.2125   3.5211   4.3268  -1.3293   3.1032   1.0029   0.00    0.0
2012/07/24 02:25:44.000    447669.4346   3638117.5011   5202282.7043   5  14   2.2168   3.5194   4.3095  -1.3402   3.0902   1.0004   0.00    0.0
2012/07/24 02:26:14.000    447669.6841   3638117.3639   5202282.7596   5  14   1.8803   2.9673   4.2461   0.6394   2.8783   1.3177   0.00    0.0
2012/07/24 02:26:44.000    447669.1805   3638117.1674   5202282.7838   5  14   1.8808   2.9683   4.2314   0.6227   2.8714   1.3080   0.00    0.0
2012/07/24 02:27:14.000    447669.4284   3638117.7639   5202283.1926   5  14   1.8814   2.9691   4.2164   0.6055   2.8642   1.2982   0.00    0.0
2012/07/24 02:27:44.000    447669.5589   3638117.2373   5202282.2680   5  14   1.8820   2.9699   4.2011   0.5876   2.8568   1.2882   0.00    0.0
2012/07/24 02:28:14.000    447669.3338   3638117.1823   5202282.8070   5  14   1.8827   2.9706   4.1857   0.5691   2.8492   1.2782   0.00    0.0
2012/07/24 02:28:44.000    447670.0675   3638116.3360   5202281.5966   5  14   1.8834   2.9713   4.1700   0.5497   2.8414   1.2680   0.00    0.0
2012/07/24 02:29:14.000    447669.6245   3638116.0376   5202281.7207   5  14   1.8841   2.9718   4.1541   0.5296   2.8334   1.2578   0.00    0.0
2012/07/24 02:29:44.000    447669.9867   3638116.8694   5202281.8935   5  14   1.8849   2.9723   4.1380   0.5086   2.8252   1.2475   0.00    0.0
2012/07/24 02:30:14.000    447669.1126   3638115.9895   5202280.0090   5  15   1.7529   2.9187   3.9761  -0.3946   2.7058   0.8807   0.00    0.0
2012/07/24 02:30:44.000    447669.9049   3638116.0845   5202280.7227   5  15   1.7544   2.9207   3.9641  -0.4140   2.7004   0.8740   0.00    0.0
2012/07/24 02:31:14.000    447669.0612   3638116.2956   5202280.6751   5  15   1.7559   2.9226   3.9519  -0.4326   2.6948   0.8673   0.00    0.0
2012/07/24 02:31:44.000    447669.5371   3638116.4138   5202280.8657   5  15   1.7574   2.9244   3.9394  -0.4506   2.6890   0.8605   0.00    0.0
2012/07/24 02:32:14.000    447668.8671   3638116.3097   5202280.2362   5  15   1.7589   2.9262   3.9268  -0.4679   2.6830   0.8536   0.00    0.0
2012/07/24 02:32:44.000    447669.2931   3638116.1953   5202280.3931   5  15   1.7605   2.9279   3.9141  -0.4848   2.6769   0.8466   0.00    0.0
2012/07/24 02:33:14.000    447669.4714   3638115.8323   5202280.8235   5  15   1.7621   2.9296   3.9011  -0.5012   2.6705   0.8396   0.00    0.0
2012/07/24 02:33:44.000    447669.2762   3638116.1247   5202281.0816   5  15   1.7638   2.9312   3.8880  -0.5171   2.6640   0.8326   0.00    0.0
2012/07/24 02:34:14.000    447669.2013   3638116.0846   5202281.0732   5  15   1.7655   2.9328   3.8748  -0.5327   2.6574   0.8255   0.00    0.0
2012/07/24 02:34:44.000    447669.1158   3638115.9284   5202280.7203   5  15   1.7673   2.9343   3.8615  -0.5479   2.6505   0.8183   0.00    0.0
2012/07/24 02:35:14.000    447669.6197   3638116.6779   5202281.5295   5  15   1.7690   2.9358   3.8480  -0.5627   2.6436   0.8111   0.00    0.0
2012/07/24 02:35:44.000    447668.9252   3638116.6265   5202281.6911   5  15   1.7709   2.9372   3.8344  -0.5773   2.6365   0.8039   0.00    0.0
2012/07/24 02:36:14.000    447669.1079   3638116.3205   5202281.0226   5  15   1.7727   2.9386   3.8208  -0.5916   2.6292   0.7966   0.00    0.0
2012/07/24 02:36:44.000    447668.8343   3638116.2497   5202280.6995   5  15   1.7746   2.9400   3.8070  -0.6055   2.6218   0.7893   0.00    0.0
2012/07/24 02:37:14.000    447669.0737   3638115.5741   5202279.8102   5  15   1.7766   2.9414   3.7932  -0.6193   2.6143   0.7820   0.00    0.0
2012/07/24 02:37:44.000    447669.0186   3638116.3167   5202280.5099   5  15   1.7785   2.9427   3.7793  -0.6328   2.6067   0.7746   0.00    0.0
2012/07/24 02:38:14.000    447668.9804   3638117.4533   5202281.6000   5  15   1.7806   2.9440   3.7654  -0.6460   2.5990   0.7672   0.00    0.0
2012/07/24 02:38:44.000    447669.0628   3638116.9638   5202281.1112   5  15   1.7826   2.9453   3.7514  -0.6591   2.5912   0.7598   0.00    0.0
2012/07/24 02:39:14.000    447669.1577   3638115.9285   5202280.0633   5  15   1.7847   2.9465   3.7374  -0.6719   2.5833   0.7523   0.00    0.0
2012/07/24 02:39:44.000    447668.5912   3638116.0385   5202280.4123   5  15   1.7869   2.9478   3.7233  -0.6846   2.5753   0.7449   0.00    0.0
2012/07/24 02:40:14.000    447668.6404   3638116.0111   5202280.3171   5  15   1.7890   2.9490   3.7093  -0.6971   2.5672   0.7374   0.00    0.0
2012/07/24 02:40:44.000    447669.0968   3638116.0408   5202279.9948   5  16   1.7900   2.9388   3.6930  -0.6969   2.5525   0.7358   0.00    0.0
2012/07/24 02:41:14.000    447669.4977   3638116.6717   5202280.6098   5  16   1.7922   2.9401   3.6789  -0.7091   2.5444   0.7284   0.00    0.0
2012/07/24 02:41:44.000    447669.1944   3638115.8878   5202281.2286   5  16   1.7945   2.9414   3.6649  -0.7211   2.5361   0.7210   0.00    0.0
2012/07/24 02:42:14.000    447668.6762   3638116.2482   5202280.8438   5  16   1.7968   2.9426   3.6509  -0.7330   2.5278   0.7135   0.00    0.0
2012/07/24 02:42:44.000    447669.4086   3638116.2273   5202280.5933   5  16   1.7991   2.9439   3.6369  -0.7447   2.5195   0.7061   0.00    0.0
2012/07/24 02:43:14.000    447669.1238   3638116.4466   5202280.2100   5  16   1.8015   2.9451   3.6229  -0.7563   2.5111   0.6987   0.00    0.0
2012/07/24 02:43:44.000    447669.1567   3638116.2449   5202281.4107   5  16   1.8039   2.9464   3.6090  -0.7678   2.5026   0.6912   0.00    0.0
2012/07/24 02:44:14.000    447668.7394   3638117.0251   5202281.0009   5  16   1.8064   2.9477   3.5951  -0.7791   2.4941   0.6838   0.00    0.0
2012/07/24 02:44:44.000    447668.5983   3638115.6338   5202280.7296   5  16   1.8089   2.9490   3.5813  -0.7903   2.4856   0.6764   0.00    0.0
2012/07/24 02:45:14.000    447668.8986   3638115.9185   5202280.3416   5  16   1.8115   2.9503   3.5675  -0.8014   2.4770   0.6689   0.00    0.0
2012/07/24 02:45:44.000    447668.9574   3638116.5977   5202281.3623   5  16   1.8140   2.9516   3.5538  -0.8123   2.4684   0.6615   0.00    0.0
2012/07/24 02:46:14.000    447669.0566   3638115.4761   5202280.0980   5  16   1.8167   2.9529   3.5401  -0.8232   2.4597   0.6541   0.00    0.0
2012/07/24 02:46:44.000    447669.0874   3638117.4562   5202282.1906   5  16   1.8193   2.9542   3.5265  -0.8339   2.4511   0.6467   0.00    0.0
2012/07/24 02:47:14.000    447668.7812   3638116.2543   5202279.7369   5  16   1.8220   2.9556   3.5130  -0.8446   2.4424   0.6394   0.00    0.0
2012/07/24 02:47:44.000    447668.7521   3638116.1841   5202281.4073   5  16   1.8248   2.9570   3.4995  -0.8551   2.4337   0.6320   0.00    0.0
2012/07/24 02:48:14.000    447668.8850   3638117.3166   5202280.9920   5  16   1.8276   2.9584   3.4862  -0.8656   2.4250   0.6247   0.00    0.0
2012/07/24 02:48:44.000    447668.6172   3638116.3149   5202280.9079   5  15   1.8376   2.9599   3.7203  -0.8781   2.4097   0.7733   0.00    0.0
2012/07/24 02:49:14.000    447668.9069   3638116.2833   5202280.3173   5  15   1.8404   2.9614   3.7076  -0.8884   2.4009   0.7672   0.00    0.0
2012/07/24 02:49:44.001    447669.1739   3638115.5736   5202279.7433   5  15   1.8433   2.9628   3.6949  -0.8986   2.3920   0.7611   0.00    0.0
2012/07/24 02:50:14.000    447668.3510   3638115.3255   5202280.5839   5  14   1.9088   3.8639   3.8439   0.6128   2.9006   1.0511   0.00    0.0
2012/07/24 02:50:44.000    447669.0136   3638115.8350   5202281.0590   5  14   1.9097   3.8725   3.8307   0.5858   2.8938   1.0417   0.00    0.0
2012/07/24 02:51:14.000    447668.4241   3638115.3303   5202281.2852   5  14   1.9106   3.8812   3.8175   0.5571   2.8870   1.0323   0.00    0.0
2012/07/24 02:51:44.000    447669.0549   3638115.2879   5202280.0422   5  14   1.9116   3.8901   3.8045   0.5267   2.8802   1.0228   0.00    0.0
2012/07/24 02:52:14.000    447669.3565   3638115.6852   5202280.9059   5  14   1.9127   3.8991   3.7915   0.4940   2.8734   1.0134   0.00    0.0
2012/07/24 02:52:44.000    447668.4768   3638116.7773   5202281.2082   5  14   1.8864   2.8427   3.6569   1.0375   2.3804   1.1467   0.00    0.0
2012/07/24 02:53:14.000    447668.4364   3638117.3525   5202280.9095   5  14   1.8861   2.8479   3.6458   1.0333   2.3754   1.1408   0.00    0.0
2012/07/24 02:53:44.000    447668.2912   3638117.6325   5202281.8763   5  14   1.8859   2.8531   3.6348   1.0292   2.3705   1.1348   0.00    0.0
2012/07/24 02:54:14.000    447668.3925   3638116.4539   5202280.9158   5  14   1.8857   2.8584   3.6238   1.0250   2.3655   1.1289   0.00    0.0
2012/07/24 02:54:44.000    447668.5954   3638116.8103   5202281.2893   5  14   1.8855   2.8638   3.6130   1.0207   2.3606   1.1230   0.00    0.0
2012/07/24 02:55:14.000    447668.0867   3638116.6115   5202279.9263   5  14   1.8853   2.8692   3.6022   1.0165   2.3556   1.1171   0.00    0.0
2012/07/24 02:55:44.000    447668.0978   3638117.1601   5202281.3269   5  14   1.8852   2.8747   3.5915   1.0122   2.3507   1.1112   0.00    0.0
2012/07/24 02:56:14.000    447668.9304   3638116.7747   5202281.9080   5  14   1.8850   2.8802   3.5809   1.0078   2.3458   1.1053   0.00    0.0
2012/07/24 02:56:44.000    447668.4851   3638117.1910   5202282.8430   5  14   1.8849   2.8858   3.5703   1.0035   2.3409   1.0995   0.00    0.0
2012/07/24 02:57:14.000    447668.5630   3638116.1926   5202279.7916   5  14   1.8849   2.8915   3.5599   0.9991   2.3360   1.0936   0.00    0.0
2012/07/24 02:57:44.000    447668.8677   3638116.8982   5202280.9037   5  14   1.8848   2.8972   3.5495   0.9946   2.3311   1.0878   0.00    0.0
2012/07/24 02:58:14.000    447668.6050   3638117.7649   5202281.8617   5  14   1.8848   2.9029   3.5393   0.9901   2.3262   1.0820   0.00    0.0
2012/07/24 02:58:44.000    447668.4649   3638117.7112   5202281.3347   5  14   1.8847   2.9087   3.5291   0.9856   2.3214   1.0762   0.00    0.0
2012/07/24 02:59:14.000    447668.5038   3638116.9746   5202280.9225   5  14   1.8847   2.9146   3.5191   0.9810   2.3165   1.0705   0.00    0.0
2012/07/24 02:59:44.000    447669.0332   3638116.0272   5202280.3167   5  14   1.8848   2.9206   3.5091   0.9764   2.3117   1.0647   0.00    0.0
2012/07/24 03:00:14.000    447668.9805   3638115.7303   5202279.5075   5  13   1.8848   2.9283   4.3984   0.9720   2.3639   1.0635   0.00    0.0
2012/07/24 03:00:44.000    447669.0698   3638116.4508   5202281.0213   5  13   1.8849   2.9342   4.3850   0.9672   2.3580   1.0575   0.00    0.0
2012/07/24 03:01:14.000    447668.5708   3638116.3356   5202280.1348   5  13   1.8849   2.9403   4.3715   0.9625   2.3521   1.0516   0.00    0.0
2012/07/24 03:01:44.000    447669.2301   3638117.1255   5202279.8932   5  13   1.8850   2.9464   4.3581   0.9577   2.3461   1.0458   0.00    0.0
2012/07/24 03:02:14.000    447668.9281   3638116.4025   5202279.3184   5  13   1.8852   2.9525   4.3447   0.9528   2.3402   1.0399   0.00    0.0
2012/07/24 03:02:44.000    447669.0759   3638116.3369   5202280.6273   5  13   1.8853   2.9587   4.3314   0.9479   2.3344   1.0341   0.00    0.0
2012/07/24 03:03:14.000    447669.0803   3638116.8917   5202280.7008   5  13   1.8854   2.9650   4.3181   0.9429   2.3285   1.0284   0.00    0.0
2012/07/24 03:03:44.000    447668.9670   3638116.0028   5202280.7108   5  13   1.8856   2.9713   4.3049   0.9379   2.3227   1.0226   0.00    0.0
2012/07/24 03:04:14.000    447668.7673   3638116.7298   5202281.1303   5  13   1.8858   2.9777   4.2918   0.9328   2.3168   1.0170   0.00    0.0
2012/07/24 03:04:44.000    447669.5432   3638116.4949   5202280.4836   5  13   1.8860   2.9842   4.2787   0.9276   2.3111   1.0113   0.00    0.0
2012/07/24 03:05:14.000    447669.0350   3638117.0619   5202280.8599   5  13   1.8862   2.9907   4.2657   0.9224   2.3053   1.0057   0.00    0.0
2012/07/24 03:05:44.000    447669.4437   3638117.0013   5202280.5861   5  14   1.8110   2.8819   3.8203   1.1296   1.9365   1.4097   0.00    0.0
2012/07/24 03:06:14.000    447669.4731   3638116.8063   5202281.0532   5  14   1.8101   2.8890   3.8149   1.1266   1.9340   1.4050   0.00    0.0
2012/07/24 03:06:44.000    447669.1725   3638116.7503   5202280.9971   5  14   1.8092   2.8961   3.8095   1.1235   1.9314   1.4003   0.00    0.0
2012/07/24 03:07:14.000    447669.1931   3638117.0602   5202280.8008   5  15   1.8049   2.9032   3.7888   1.1202   1.9286   1.3817   0.00    0.0
2012/07/24 03:07:44.000    447668.9725   3638116.2263   5202280.8040   5  15   1.8040   2.9104   3.7836   1.1171   1.9262   1.3770   0.00    0.0
2012/07/24 03:08:14.000    447669.3155   3638117.0497   5202280.4712   5  15   1.6908   2.9176   3.2781   1.1127   1.9217   0.8400   0.00    0.0
2012/07/24 03:08:44.000    447669.1768   3638116.3614   5202280.0367   5  15   1.6902   2.9248   3.2772   1.1117   1.9232   0.8362   0.00    0.0
2012/07/24 03:09:14.000    447668.6659   3638116.8728   5202280.3881   5  15   1.6895   2.9321   3.2763   1.1108   1.9247   0.8324   0.00    0.0
2012/07/24 03:09:44.000    447669.2090   3638116.6674   5202280.4858   5  15   1.6889   2.9393   3.2755   1.1098   1.9262   0.8286   0.00    0.0
2012/07/24 03:10:14.000    447669.0437   3638116.7409   5202280.8027   5  15   1.6882   2.9466   3.2747   1.1088   1.9278   0.8248   0.00    0.0
2012/07/24 03:10:44.000    447669.1402   3638117.1890   5202280.2423   5  15   1.6876   2.9538   3.2739   1.1078   1.9293   0.8210   0.00    0.0
2012/07/24 03:11:14.000    447668.6569   3638117.0425   5202281.2389   5  15   1.6870   2.9611   3.2732   1.1067   1.9308   0.8172   0.00    0.0
2012/07/24 03:11:44.000    447669.0998   3638116.5272   5202280.2695   5  15   1.6864   2.9683   3.2725   1.1056   1.9324   0.8135   0.00    0.0
2012/07/24 03:12:14.000    447668.5259   3638117.0999   5202279.8876   5  15   1.6858   2.9756   3.2718   1.1045   1.9339   0.8097   0.00    0.0
2012/07/24 03:12:44.000    447669.0663   3638117.2269   5202278.9793   5  15   1.6853   2.9829   3.2712   1.1034   1.9354   0.8059   0.00    0.0
2012/07/24 03:13:14.000    447668.6651   3638116.5183   5202280.0398   5  15   1.6847   2.9901   3.2706   1.1022   1.9370   0.8022   0.00    0.0
2012/07/24 03:13:44.000    447668.7616   3638117.0894   5202279.9417   5  15   1.6841   2.9973   3.2701   1.1010   1.9385   0.7984   0.00    0.0
2012/07/24 03:14:14.000    447669.2596   3638117.0949   5202280.8895   5  15   1.6836   3.0046   3.2696   1.0998   1.9401   0.7947   0.00    0.0
2012/07/24 03:14:44.000    447668.9664   3638117.3540   5202280.5037   5  15   1.6831   3.0118   3.2691   1.0985   1.9417   0.7909   0.00    0.0
2012/07/24 03:15:14.000    447668.3399   3638117.2535   5202280.2806   5  15   1.6825   3.0190   3.2687   1.0972   1.9432   0.7872   0.00    0.0
2012/07/24 03:15:44.000    447668.8790   3638116.4973   5202280.4726   5  15   1.6820   3.0262   3.2684   1.0959   1.9448   0.7834   0.00    0.0
2012/07/24 03:16:14.000    447669.1070   3638117.3999   5202279.6715   5  15   1.6815   3.0334   3.2681   1.0945   1.9464   0.7797   0.00    0.0
2012/07/24 03:16:44.000    447669.2480   3638117.2908   5202280.0195   5  15   1.6810   3.0406   3.2678   1.0931   1.9480   0.7760   0.00    0.0
2012/07/24 03:17:14.000    447668.8662   3638116.8202   5202279.2561   5  15   1.6805   3.0478   3.2676   1.0916   1.9496   0.7723   0.00    0.0
2012/07/24 03:17:44.000    447669.5081   3638117.3687   5202280.0804   5  14   1.9892   3.3391   3.4803   1.6199   2.3287   1.3665   0.00    0.0
2012/07/24 03:18:14.000    447669.6002   3638117.3199   5202280.5363   5  14   1.9862   3.3467   3.4826   1.6177   2.3327   1.3649   0.00    0.0
2012/07/24 03:18:44.000    447669.9588   3638118.1874   5202281.1307   5  14   1.9831   3.3543   3.4848   1.6154   2.3367   1.3632   0.00    0.0
2012/07/24 03:19:14.000    447669.3628   3638117.4589   5202280.7582   5  14   1.9801   3.3618   3.4871   1.6131   2.3406   1.3615   0.00    0.0
2012/07/24 03:19:44.000    447670.0199   3638117.5128   5202280.4494   5  14   1.9770   3.3692   3.4895   1.6106   2.3445   1.3597   0.00    0.0
2012/07/24 03:20:14.000    447669.5199   3638116.5484   5202280.2889   5  14   1.9740   3.3765   3.4918   1.6080   2.3484   1.3578   0.00    0.0
2012/07/24 03:20:44.000    447669.1132   3638115.6386   5202280.0117   5  14   1.9709   3.3838   3.4942   1.6054   2.3522   1.3559   0.00    0.0
2012/07/24 03:21:14.000    447668.9194   3638116.6412   5202280.2781   5  14   1.9678   3.3910   3.4966   1.6026   2.3559   1.3539   0.00    0.0
2012/07/24 03:21:44.000    447669.5115   3638116.9184   5202280.6949   5  15   1.9630   3.3981   3.4889   1.5993   2.3586   1.3436   0.00    0.0
2012/07/24 03:22:14.000    447669.5783   3638116.7490   5202280.2543   5  15   1.9599   3.4051   3.4915   1.5964   2.3623   1.3416   0.00    0.0
