% program   : RTKLIB ver.2.4.3
% inp file  : C:\Users\Satellite\Desktop\Разработки\Soft\RouteGNSS\TestData\pku3310i.18O
% inp file  : C:\Users\Satellite\Desktop\Разработки\Soft\RouteGNSS\TestData\pku3310i.18n
% inp file  : C:\Users\Satellite\Desktop\Разработки\Soft\RouteGNSS\TestData\pku3310i.18g
% obs start : 2018/11/06 08:18:21.0 UTC (week2026 202719.0s)
% obs end   : 2018/11/06 11:11:35.0 UTC (week2026 213113.0s)
% pos mode  : Single
% elev mask : 15.0 deg
% ionos opt : Broadcast
% tropo opt : Saastamoinen
% ephemeris : Broadcast
% navi sys  : GPS GLONASS Galileo QZSS BDS NavIC SBAS
%
% (x/y/z-ecef=WGS84,Q=1:fix,2:float,3:sbas,4:dgps,5:single,6:ppp,ns=# of satellites)
%  UTC                       x-ecef(m)      y-ecef(m)      z-ecef(m)   Q  ns   sdx(m)   sdy(m)   sdz(m)  sdxy(m)  sdyz(m)  sdzx(m) age(s)  ratio
2018/11/06 08:18:21.000   -414902.2366   3302448.3159   5422883.5058   5  13   2.0749   3.1744   6.8570   0.7476   2.9007   1.8330   0.00    0.0
2018/11/06 08:18:22.000   -414901.9981   3302448.3668   5422881.9012   5  13   2.0747   3.1745   6.8569   0.7472   2.9009   1.8324   0.00    0.0
2018/11/06 08:18:23.000   -414901.6736   3302448.4847   5422881.5180   5  13   2.0746   3.1745   6.8569   0.7469   2.9011   1.8318   0.00    0.0
2018/11/06 08:18:24.000   -414901.5286   3302448.5621   5422880.6570   5  13   2.0744   3.1745   6.8569   0.7466   2.9013   1.8311   0.00    0.0
2018/11/06 08:18:25.000   -414901.8367   3302448.7251   5422880.4379   5  13   2.0743   3.1746   6.8569   0.7463   2.9015   1.8305   0.00    0.0
2018/11/06 08:18:26.000   -414901.9570   3302448.9773   5422881.4131   5  13   2.0742   3.1746   6.8569   0.7459   2.9016   1.8299   0.00    0.0
2018/11/06 08:18:27.000   -414901.8969   3302448.5220   5422879.2024   5  13   2.0740   3.1747   6.8568   0.7456   2.9018   1.8293   0.00    0.0
2018/11/06 08:18:28.000   -414902.1812   3302448.5215   5422880.8457   5  13   2.0739   3.1747   6.8568   0.7453   2.9020   1.8286   0.00    0.0
2018/11/06 08:18:29.000   -414902.0567   3302448.4119   5422880.4894   5  13   2.0738   3.1748   6.8568   0.7449   2.9022   1.8280   0.00    0.0
2018/11/06 08:18:30.000   -414902.0720   3302448.1023   5422881.1921   5  13   2.0736   3.1748   6.8568   0.7446   2.9024   1.8274   0.00    0.0
2018/11/06 08:18:31.000   -414902.0268   3302448.2371   5422881.0355   5  13   2.0735   3.1748   6.8568   0.7443   2.9026   1.8267   0.00    0.0
2018/11/06 08:18:32.000   -414901.8627   3302448.6327   5422880.8848   5  13   2.0733   3.1749   6.8567   0.7439   2.9027   1.8261   0.00    0.0
2018/11/06 08:18:33.000   -414901.9399   3302448.8392   5422880.7346   5  13   2.0732   3.1749   6.8567   0.7436   2.9029   1.8255   0.00    0.0
2018/11/06 08:18:34.000   -414901.7840   3302448.7633   5422879.7530   5  13   2.0731   3.1750   6.8567   0.7432   2.9031   1.8248   0.00    0.0
2018/11/06 08:18:35.000   -414901.8177   3302449.2088   5422880.9225   5  13   2.0729   3.1750   6.8567   0.7429   2.9033   1.8242   0.00    0.0
2018/11/06 08:18:36.000   -414901.9454   3302448.8444   5422880.7616   5  13   2.0728   3.1750   6.8566   0.7426   2.9035   1.8236   0.00    0.0
2018/11/06 08:18:37.000   -414902.2007   3302448.8769   5422880.2465   5  13   2.0726   3.1751   6.8566   0.7422   2.9036   1.8229   0.00    0.0
2018/11/06 08:18:38.000   -414902.1987   3302449.1069   5422881.3105   5  13   2.0725   3.1751   6.8566   0.7419   2.9038   1.8223   0.00    0.0
2018/11/06 08:18:39.000   -414901.9880   3302448.9731   5422881.8954   5  13   2.0724   3.1752   6.8566   0.7416   2.9040   1.8217   0.00    0.0
2018/11/06 08:18:40.000   -414902.2844   3302449.1485   5422882.0435   5  13   2.0722   3.1752   6.8565   0.7412   2.9042   1.8210   0.00    0.0
2018/11/06 08:18:41.000   -414902.0591   3302449.2285   5422882.6343   5  13   2.0721   3.1753   6.8565   0.7409   2.9043   1.8204   0.00    0.0
2018/11/06 08:18:42.000   -414902.1402   3302449.3188   5422883.5589   5  13   2.0719   3.1753   6.8565   0.7406   2.9045   1.8198   0.00    0.0
2018/11/06 08:18:43.000   -414902.3212   3302449.0995   5422882.9522   5  13   2.0718   3.1753   6.8564   0.7402   2.9047   1.8191   0.00    0.0
2018/11/06 08:18:44.000   -414902.1833   3302448.5864   5422881.9063   5  13   2.0717   3.1754   6.8564   0.7399   2.9049   1.8185   0.00    0.0
2018/11/06 08:18:45.000   -414902.1448   3302448.7106   5422881.2179   5  13   2.0715   3.1754   6.8564   0.7395   2.9050   1.8178   0.00    0.0
2018/11/06 08:18:46.000   -414902.2394   3302448.6660   5422882.7237   5  13   2.0714   3.1755   6.8563   0.7392   2.9052   1.8172   0.00    0.0
2018/11/06 08:18:47.000   -414902.2935   3302449.0863   5422883.7776   5  13   2.0713   3.1755   6.8563   0.7389   2.9054   1.8165   0.00    0.0
2018/11/06 08:18:48.000   -414902.3553   3302449.3205   5422883.0091   5  13   2.0711   3.1755   6.8563   0.7385   2.9056   1.8159   0.00    0.0
2018/11/06 08:18:49.000   -414902.2765   3302449.6630   5422883.8042   5  13   2.0710   3.1756   6.8562   0.7382   2.9058   1.8153   0.00    0.0
2018/11/06 08:18:50.000   -414902.3681   3302449.2845   5422882.1953   5  13   2.0708   3.1756   6.8562   0.7378   2.9059   1.8146   0.00    0.0
2018/11/06 08:18:51.000   -414902.7882   3302449.1298   5422883.6061   5  13   2.0707   3.1757   6.8562   0.7375   2.9061   1.8140   0.00    0.0
2018/11/06 08:18:52.000   -414902.7596   3302449.8940   5422883.8679   5  13   2.0706   3.1757   6.8561   0.7371   2.9063   1.8133   0.00    0.0
2018/11/06 08:18:53.000   -414902.6098   3302449.7721   5422884.2384   5  13   2.0704   3.1757   6.8561   0.7368   2.9064   1.8127   0.00    0.0
2018/11/06 08:18:54.000   -414902.6446   3302449.6213   5422884.3421   5  13   2.0703   3.1758   6.8560   0.7365   2.9066   1.8120   0.00    0.0
2018/11/06 08:18:55.000   -414902.5905   3302449.0835   5422884.6361   5  13   2.0701   3.1758   6.8560   0.7361   2.9068   1.8114   0.00    0.0
2018/11/06 08:18:56.000   -414902.8844   3302449.3325   5422885.5748   5  13   2.0700   3.1759   6.8560   0.7358   2.9070   1.8107   0.00    0.0
2018/11/06 08:18:57.000   -414902.9456   3302449.5662   5422885.0203   5  13   2.0699   3.1759   6.8559   0.7354   2.9071   1.8101   0.00    0.0
2018/11/06 08:18:58.000   -414902.8482   3302449.1688   5422884.8791   5  13   2.0697   3.1759   6.8559   0.7351   2.9073   1.8095   0.00    0.0
2018/11/06 08:18:59.000   -414903.0948   3302449.5949   5422885.8333   5  13   2.0696   3.1760   6.8558   0.7347   2.9075   1.8088   0.00    0.0
2018/11/06 08:19:00.000   -414903.0986   3302449.3226   5422885.4918   5  13   2.0694   3.1760   6.8558   0.7344   2.9076   1.8082   0.00    0.0
2018/11/06 08:19:01.000   -414903.5007   3302449.2918   5422883.3838   5  14   2.0235   3.1751   5.5353   0.7105   2.8527   1.2308   0.00    0.0
2018/11/06 08:19:02.000   -414903.5343   3302449.2462   5422883.3807   5  14   2.0234   3.1751   5.5357   0.7102   2.8530   1.2303   0.00    0.0
2018/11/06 08:19:03.000   -414903.5056   3302449.7554   5422883.7645   5  14   2.0233   3.1752   5.5360   0.7099   2.8533   1.2298   0.00    0.0
2018/11/06 08:19:04.000   -414903.6541   3302449.8964   5422883.2284   5  14   2.0232   3.1752   5.5363   0.7096   2.8536   1.2292   0.00    0.0
2018/11/06 08:19:05.000   -414903.8277   3302449.2763   5422883.1097   5  14   2.0231   3.1753   5.5367   0.7093   2.8539   1.2287   0.00    0.0
2018/11/06 08:19:06.000   -414903.5286   3302449.7390   5422883.8590   5  14   2.0230   3.1753   5.5370   0.7090   2.8542   1.2282   0.00    0.0
2018/11/06 08:19:07.000   -414903.3735   3302449.2403   5422883.1896   5  14   2.0229   3.1754   5.5373   0.7087   2.8544   1.2276   0.00    0.0
2018/11/06 08:19:08.000   -414903.2616   3302449.1023   5422883.6986   5  14   2.0228   3.1754   5.5377   0.7084   2.8547   1.2271   0.00    0.0
2018/11/06 08:19:09.000   -414903.4231   3302449.3946   5422883.7540   5  14   2.0227   3.1754   5.5380   0.7081   2.8550   1.2266   0.00    0.0
2018/11/06 08:19:10.000   -414903.3527   3302449.8174   5422884.0803   5  14   2.0226   3.1755   5.5384   0.7078   2.8553   1.2260   0.00    0.0
2018/11/06 08:19:11.000   -414903.2045   3302449.6602   5422884.0027   5  14   2.0225   3.1755   5.5387   0.7075   2.8556   1.2255   0.00    0.0
2018/11/06 08:19:12.000   -414903.2004   3302449.3691   5422884.8931   5  14   2.0224   3.1756   5.5390   0.7072   2.8558   1.2250   0.00    0.0
2018/11/06 08:19:13.000   -414903.1585   3302449.1422   5422884.6976   5  14   2.0223   3.1756   5.5394   0.7069   2.8561   1.2244   0.00    0.0
2018/11/06 08:19:14.000   -414903.6364   3302449.2796   5422884.7336   5  14   2.0222   3.1757   5.5397   0.7066   2.8564   1.2239   0.00    0.0
2018/11/06 08:19:15.000   -414903.6442   3302449.1246   5422884.3862   5  14   2.0221   3.1757   5.5400   0.7062   2.8567   1.2233   0.00    0.0
2018/11/06 08:19:16.000   -414903.8947   3302449.0347   5422884.0382   5  14   2.0220   3.1757   5.5404   0.7059   2.8570   1.2228   0.00    0.0
2018/11/06 08:19:17.000   -414903.8984   3302448.7922   5422883.4206   5  14   2.0219   3.1758   5.5407   0.7056   2.8572   1.2223   0.00    0.0
2018/11/06 08:19:18.000   -414903.6784   3302448.9835   5422884.5025   5  14   2.0218   3.1758   5.5411   0.7053   2.8575   1.2217   0.00    0.0
2018/11/06 08:19:19.000   -414903.6774   3302449.0325   5422884.8965   5  14   2.0217   3.1759   5.5414   0.7050   2.8578   1.2212   0.00    0.0
2018/11/06 08:19:20.000   -414903.5769   3302448.7986   5422884.0914   5  14   2.0216   3.1759   5.5417   0.7047   2.8581   1.2206   0.00    0.0
2018/11/06 08:19:21.000   -414903.6088   3302449.3075   5422885.7830   5  14   2.0215   3.1760   5.5421   0.7044   2.8584   1.2201   0.00    0.0
2018/11/06 08:19:22.000   -414903.4811   3302449.2517   5422885.6480   5  14   2.0214   3.1760   5.5424   0.7041   2.8586   1.2196   0.00    0.0
2018/11/06 08:19:23.000   -414903.6872   3302449.3151   5422886.1949   5  14   2.0213   3.1760   5.5427   0.7038   2.8589   1.2190   0.00    0.0
2018/11/06 08:19:24.000   -414903.7116   3302449.2558   5422885.3704   5  14   2.0212   3.1761   5.5431   0.7035   2.8592   1.2185   0.00    0.0
2018/11/06 08:19:25.000   -414903.7280   3302449.3952   5422884.4393   5  14   2.0211   3.1761   5.5434   0.7032   2.8595   1.2179   0.00    0.0
2018/11/06 08:19:26.000   -414903.8196   3302448.9990   5422884.8235   5  14   2.0210   3.1762   5.5437   0.7028   2.8598   1.2174   0.00    0.0
2018/11/06 08:19:27.000   -414903.6778   3302448.7684   5422884.0138   5  14   2.0209   3.1762   5.5441   0.7025   2.8600   1.2168   0.00    0.0
2018/11/06 08:19:28.000   -414903.7555   3302448.9223   5422884.8682   5  14   2.0208   3.1763   5.5444   0.7022   2.8603   1.2163   0.00    0.0
2018/11/06 08:19:29.000   -414903.6919   3302448.9336   5422885.5469   5  14   2.0207   3.1763   5.5448   0.7019   2.8606   1.2157   0.00    0.0
2018/11/06 08:19:30.000   -414903.7401   3302448.8826   5422884.3793   5  14   2.0206   3.1763   5.5451   0.7016   2.8609   1.2152   0.00    0.0
2018/11/06 08:19:31.000   -414903.5529   3302448.4178   5422884.4862   5  14   2.0205   3.1764   5.5454   0.7013   2.8611   1.2147   0.00    0.0
2018/11/06 08:19:32.000   -414903.5590   3302448.3643   5422884.1716   5  14   2.0204   3.1764   5.5458   0.7010   2.8614   1.2141   0.00    0.0
2018/11/06 08:19:33.000   -414903.3110   3302448.3656   5422884.4976   5  14   2.0203   3.1765   5.5461   0.7006   2.8617   1.2136   0.00    0.0
2018/11/06 08:19:34.000   -414903.6121   3302448.4277   5422885.3840   5  14   2.0202   3.1765   5.5464   0.7003   2.8620   1.2130   0.00    0.0
2018/11/06 08:19:35.000   -414903.3362   3302448.7610   5422885.7410   5  14   2.0201   3.1765   5.5468   0.7000   2.8622   1.2125   0.00    0.0
2018/11/06 08:19:36.000   -414903.5021   3302448.5823   5422885.0704   5  14   2.0200   3.1766   5.5471   0.6997   2.8625   1.2119   0.00    0.0
2018/11/06 08:19:37.000   -414903.5585   3302448.4523   5422885.3029   5  14   2.0199   3.1766   5.5474   0.6994   2.8628   1.2114   0.00    0.0
2018/11/06 08:19:38.000   -414903.5851   3302448.8843   5422885.5661   5  14   2.0198   3.1767   5.5478   0.6991   2.8631   1.2108   0.00    0.0
2018/11/06 08:19:39.000   -414903.4526   3302449.0549   5422887.1407   5  14   2.0197   3.1767   5.5481   0.6988   2.8633   1.2102   0.00    0.0
2018/11/06 08:19:40.000   -414902.9712   3302448.9513   5422886.2180   5  14   2.0196   3.1768   5.5484   0.6984   2.8636   1.2097   0.00    0.0
2018/11/06 08:19:41.000   -414903.2774   3302448.8315   5422886.5296   5  14   2.0195   3.1768   5.5488   0.6981   2.8639   1.2091   0.00    0.0
2018/11/06 08:19:42.000   -414903.2086   3302448.9107   5422886.1671   5  14   2.0194   3.1768   5.5491   0.6978   2.8642   1.2086   0.00    0.0
2018/11/06 08:19:43.000   -414903.1943   3302448.9194   5422885.2133   5  14   2.0193   3.1769   5.5494   0.6975   2.8644   1.2080   0.00    0.0
2018/11/06 08:19:44.000   -414903.1372   3302449.1081   5422885.7966   5  14   2.0193   3.1769   5.5498   0.6972   2.8647   1.2075   0.00    0.0
2018/11/06 08:19:45.000   -414903.1578   3302449.4587   5422885.1522   5  14   2.0192   3.1770   5.5501   0.6969   2.8650   1.2069   0.00    0.0
2018/11/06 08:19:46.000   -414902.9689   3302449.5716   5422886.3516   5  14   2.0191   3.1770   5.5504   0.6965   2.8653   1.2064   0.00    0.0
2018/11/06 08:19:47.000   -414902.9159   3302449.2826   5422886.5853   5  14   2.0190   3.1770   5.5508   0.6962   2.8655   1.2058   0.00    0.0
2018/11/06 08:19:48.000   -414902.7322   3302449.3922   5422886.5861   5  14   2.0189   3.1771   5.5511   0.6959   2.8658   1.2052   0.00    0.0
2018/11/06 08:19:49.000   -414902.9832   3302449.6653   5422885.5623   5  14   2.0188   3.1771   5.5514   0.6956   2.8661   1.2047   0.00    0.0
2018/11/06 08:19:50.000   -414902.8396   3302449.4713   5422885.9385   5  14   2.0187   3.1772   5.5518   0.6953   2.8664   1.2041   0.00    0.0
2018/11/06 08:19:51.000   -414902.5822   3302449.2526   5422886.1922   5  14   2.0186   3.1772   5.5521   0.6949   2.8666   1.2036   0.00    0.0
2018/11/06 08:19:52.000   -414902.5790   3302449.4424   5422886.5945   5  14   2.0185   3.1772   5.5524   0.6946   2.8669   1.2030   0.00    0.0
2018/11/06 08:19:53.000   -414902.7397   3302449.1029   5422886.0760   5  14   2.0184   3.1773   5.5528   0.6943   2.8672   1.2024   0.00    0.0
2018/11/06 08:19:54.000   -414902.7319   3302448.9229   5422887.1057   5  14   2.0183   3.1773   5.5531   0.6940   2.8675   1.2019   0.00    0.0
2018/11/06 08:19:55.000   -414902.7655   3302449.0372   5422886.2040   5  14   2.0182   3.1774   5.5534   0.6937   2.8677   1.2013   0.00    0.0
2018/11/06 08:19:56.000   -414902.7252   3302448.4965   5422886.2674   5  14   2.0181   3.1774   5.5538   0.6933   2.8680   1.2007   0.00    0.0
2018/11/06 08:19:57.000   -414902.7009   3302448.9620   5422886.9269   5  14   2.0180   3.1775   5.5541   0.6930   2.8683   1.2002   0.00    0.0
2018/11/06 08:19:58.000   -414902.6926   3302448.5077   5422887.0800   5  14   2.0179   3.1775   5.5544   0.6927   2.8685   1.1996   0.00    0.0
2018/11/06 08:19:59.000   -414902.7629   3302449.0423   5422887.1209   5  14   2.0178   3.1775   5.5547   0.6924   2.8688   1.1990   0.00    0.0
2018/11/06 08:20:00.000   -414902.8163   3302449.0696   5422886.3379   5  14   2.0177   3.1776   5.5551   0.6920   2.8691   1.1985   0.00    0.0
2018/11/06 08:20:01.000   -414902.6564   3302449.3566   5422886.8802   5  14   2.0176   3.1776   5.5554   0.6917   2.8694   1.1979   0.00    0.0
2018/11/06 08:20:02.000   -414902.9588   3302449.1411   5422887.1187   5  14   2.0175   3.1777   5.5557   0.6914   2.8696   1.1973   0.00    0.0
2018/11/06 08:20:03.000   -414902.7852   3302449.4117   5422886.5249   5  14   2.0174   3.1777   5.5561   0.6911   2.8699   1.1968   0.00    0.0
2018/11/06 08:20:04.000   -414902.8138   3302449.1655   5422885.5523   5  14   2.0173   3.1777   5.5564   0.6907   2.8702   1.1962   0.00    0.0
2018/11/06 08:20:05.000   -414902.4080   3302448.9295   5422886.1602   5  14   2.0172   3.1778   5.5567   0.6904   2.8704   1.1956   0.00    0.0
2018/11/06 08:20:06.000   -414902.5086   3302448.9387   5422885.6712   5  14   2.0171   3.1778   5.5571   0.6901   2.8707   1.1951   0.00    0.0
2018/11/06 08:20:07.000   -414902.4221   3302449.4309   5422886.3678   5  14   2.0170   3.1779   5.5574   0.6898   2.8710   1.1945   0.00    0.0
2018/11/06 08:20:08.000   -414902.4264   3302449.5620   5422887.0391   5  14   2.0169   3.1779   5.5577   0.6894   2.8712   1.1939   0.00    0.0
2018/11/06 08:20:09.000   -414902.3787   3302449.8269   5422886.5437   5  14   2.0168   3.1779   5.5580   0.6891   2.8715   1.1933   0.00    0.0
2018/11/06 08:20:10.000   -414902.4782   3302449.7074   5422886.6690   5  14   2.0167   3.1780   5.5584   0.6888   2.8718   1.1928   0.00    0.0
2018/11/06 08:20:11.000   -414902.2509   3302449.7861   5422887.4857   5  14   2.0166   3.1780   5.5587   0.6885   2.8721   1.1922   0.00    0.0
2018/11/06 08:20:12.000   -414902.3357   3302450.0985   5422888.6288   5  14   2.0165   3.1781   5.5590   0.6881   2.8723   1.1916   0.00    0.0
2018/11/06 08:20:13.000   -414902.4626   3302449.8952   5422887.8289   5  14   2.0164   3.1781   5.5594   0.6878   2.8726   1.1910   0.00    0.0
2018/11/06 08:20:14.000   -414902.4920   3302449.9554   5422888.1366   5  14   2.0163   3.1781   5.5597   0.6875   2.8729   1.1905   0.00    0.0
2018/11/06 08:20:15.000   -414902.3850   3302449.6756   5422887.5785   5  14   2.0162   3.1782   5.5600   0.6871   2.8731   1.1899   0.00    0.0
2018/11/06 08:20:16.000   -414902.2167   3302449.6425   5422888.0702   5  14   2.0162   3.1782   5.5604   0.6868   2.8734   1.1893   0.00    0.0
2018/11/06 08:20:17.000   -414902.2077   3302449.3231   5422887.4532   5  14   2.0161   3.1782   5.5607   0.6865   2.8737   1.1887   0.00    0.0
2018/11/06 08:20:18.000   -414902.3348   3302449.9167   5422888.5841   5  14   2.0160   3.1783   5.5610   0.6861   2.8739   1.1882   0.00    0.0
2018/11/06 08:20:19.000   -414902.4202   3302449.8257   5422886.7673   5  14   2.0159   3.1783   5.5613   0.6858   2.8742   1.1876   0.00    0.0
2018/11/06 08:20:20.000   -414902.7013   3302449.8242   5422887.1182   5  14   2.0158   3.1784   5.5617   0.6855   2.8745   1.1870   0.00    0.0
2018/11/06 08:20:21.000   -414902.5311   3302449.8016   5422886.6024   5  14   2.0157   3.1784   5.5620   0.6852   2.8747   1.1864   0.00    0.0
2018/11/06 08:20:22.000   -414902.4912   3302449.2284   5422886.5002   5  14   2.0156   3.1784   5.5623   0.6848   2.8750   1.1858   0.00    0.0
2018/11/06 08:20:23.000   -414902.7227   3302449.2490   5422887.0185   5  14   2.0155   3.1785   5.5626   0.6845   2.8753   1.1853   0.00    0.0
2018/11/06 08:20:24.000   -414902.9980   3302449.0658   5422887.2537   5  14   2.0154   3.1785   5.5630   0.6842   2.8755   1.1847   0.00    0.0
2018/11/06 08:20:25.000   -414902.7917   3302449.1587   5422886.6368   5  14   2.0153   3.1786   5.5633   0.6838   2.8758   1.1841   0.00    0.0
2018/11/06 08:20:26.000   -414903.1797   3302449.2288   5422886.0110   5  14   2.0152   3.1786   5.5636   0.6835   2.8761   1.1835   0.00    0.0
2018/11/06 08:20:27.000   -414903.2794   3302449.0914   5422886.5847   5  14   2.0151   3.1786   5.5640   0.6832   2.8763   1.1829   0.00    0.0
2018/11/06 08:20:28.000   -414903.0896   3302449.0333   5422886.8492   5  14   2.0150   3.1787   5.5643   0.6828   2.8766   1.1823   0.00    0.0
2018/11/06 08:20:29.000   -414903.0113   3302448.9166   5422886.2553   5  14   2.0149   3.1787   5.5646   0.6825   2.8769   1.1818   0.00    0.0
2018/11/06 08:20:30.000   -414903.1232   3302448.7435   5422886.3328   5  14   2.0148   3.1788   5.5649   0.6822   2.8771   1.1812   0.00    0.0
2018/11/06 08:20:31.000   -414903.1833   3302448.3908   5422886.5689   5  14   2.0147   3.1788   5.5653   0.6818   2.8774   1.1806   0.00    0.0
2018/11/06 08:20:32.000   -414903.3178   3302448.4183   5422887.7610   5  14   2.0146   3.1788   5.5656   0.6815   2.8776   1.1800   0.00    0.0
2018/11/06 08:20:33.000   -414903.2271   3302448.5349   5422887.5407   5  14   2.0145   3.1789   5.5659   0.6811   2.8779   1.1794   0.00    0.0
2018/11/06 08:20:34.000   -414903.1379   3302448.6846   5422887.8796   5  14   2.0144   3.1789   5.5662   0.6808   2.8782   1.1788   0.00    0.0
2018/11/06 08:20:35.000   -414903.0143   3302448.4881   5422887.9548   5  14   2.0143   3.1789   5.5666   0.6805   2.8784   1.1782   0.00    0.0
2018/11/06 08:20:36.000   -414903.1841   3302448.8191   5422887.6905   5  14   2.0142   3.1790   5.5669   0.6801   2.8787   1.1776   0.00    0.0
2018/11/06 08:20:37.000   -414903.1907   3302448.9374   5422887.1844   5  14   2.0141   3.1790   5.5672   0.6798   2.8790   1.1770   0.00    0.0
2018/11/06 08:20:38.000   -414903.2721   3302448.7551   5422886.9646   5  14   2.0140   3.1791   5.5675   0.6795   2.8792   1.1764   0.00    0.0
2018/11/06 08:20:39.000   -414902.8779   3302448.6613   5422886.2510   5  14   2.0139   3.1791   5.5679   0.6791   2.8795   1.1759   0.00    0.0
2018/11/06 08:20:40.000   -414903.0865   3302448.7509   5422887.1587   5  14   2.0139   3.1791   5.5682   0.6788   2.8798   1.1753   0.00    0.0
2018/11/06 08:20:41.000   -414902.9855   3302448.5418   5422886.9600   5  14   2.0138   3.1792   5.5685   0.6784   2.8800   1.1747   0.00    0.0
2018/11/06 08:20:42.000   -414903.4196   3302448.8570   5422886.4840   5  14   2.0137   3.1792   5.5688   0.6781   2.8803   1.1741   0.00    0.0
2018/11/06 08:20:43.000   -414903.1523   3302448.6685   5422887.2161   5  14   2.0136   3.1793   5.5692   0.6778   2.8805   1.1735   0.00    0.0
2018/11/06 08:20:44.000   -414903.2482   3302448.5197   5422887.7362   5  14   2.0135   3.1793   5.5695   0.6774   2.8808   1.1729   0.00    0.0
2018/11/06 08:20:45.000   -414902.7433   3302448.4824   5422887.8516   5  14   2.0134   3.1793   5.5698   0.6771   2.8811   1.1723   0.00    0.0
2018/11/06 08:20:46.000   -414903.1206   3302448.4911   5422886.3490   5  14   2.0133   3.1794   5.5701   0.6767   2.8813   1.1717   0.00    0.0
2018/11/06 08:20:47.000   -414903.1263   3302448.1376   5422886.2955   5  14   2.0132   3.1794   5.5704   0.6764   2.8816   1.1711   0.00    0.0
2018/11/06 08:20:48.000   -414903.2080   3302448.8397   5422887.4984   5  14   2.0131   3.1794   5.5708   0.6761   2.8819   1.1705   0.00    0.0
2018/11/06 08:20:49.000   -414903.3918   3302448.4560   5422886.8727   5  14   2.0130   3.1795   5.5711   0.6757   2.8821   1.1699   0.00    0.0
2018/11/06 08:20:50.000   -414903.2069   3302448.4380   5422886.7134   5  14   2.0129   3.1795   5.5714   0.6754   2.8824   1.1693   0.00    0.0
2018/11/06 08:20:51.000   -414903.2394   3302448.3965   5422887.8789   5  14   2.0128   3.1796   5.5717   0.6750   2.8826   1.1687   0.00    0.0
2018/11/06 08:20:52.000   -414903.0196   3302448.6266   5422888.4055   5  14   2.0127   3.1796   5.5721   0.6747   2.8829   1.1681   0.00    0.0
2018/11/06 08:20:53.000   -414902.9431   3302448.4136   5422887.4311   5  14   2.0126   3.1796   5.5724   0.6743   2.8832   1.1675   0.00    0.0
2018/11/06 08:20:54.000   -414902.8979   3302448.5886   5422887.2716   5  14   2.0125   3.1797   5.5727   0.6740   2.8834   1.1669   0.00    0.0
2018/11/06 08:20:55.000   -414902.4586   3302449.0430   5422887.9664   5  14   2.0124   3.1797   5.5730   0.6737   2.8837   1.1663   0.00    0.0
2018/11/06 08:20:56.000   -414902.5290   3302448.8852   5422887.5627   5  14   2.0123   3.1797   5.5734   0.6733   2.8839   1.1657   0.00    0.0
2018/11/06 08:20:57.000   -414902.8155   3302448.8857   5422888.0300   5  14   2.0122   3.1798   5.5737   0.6730   2.8842   1.1651   0.00    0.0
2018/11/06 08:20:58.000   -414902.6885   3302448.8031   5422888.3891   5  14   2.0121   3.1798   5.5740   0.6726   2.8844   1.1645   0.00    0.0
2018/11/06 08:20:59.000   -414902.8774   3302448.6162   5422887.9947   5  14   2.0120   3.1798   5.5743   0.6723   2.8847   1.1638   0.00    0.0
2018/11/06 08:21:00.000   -414902.8665   3302448.4899   5422888.0224   5  14   2.0119   3.1799   5.5746   0.6719   2.8850   1.1632   0.00    0.0
2018/11/06 08:21:01.000   -414902.5244   3302448.6713   5422887.8809   5  14   2.0119   3.1799   5.5750   0.6716   2.8852   1.1626   0.00    0.0
2018/11/06 08:21:02.000   -414902.2375   3302448.7345   5422887.0440   5  14   2.0118   3.1800   5.5753   0.6712   2.8855   1.1620   0.00    0.0
2018/11/06 08:21:03.000   -414902.4573   3302448.2835   5422887.5059   5  14   2.0117   3.1800   5.5756   0.6709   2.8857   1.1614   0.00    0.0
2018/11/06 08:21:04.000   -414902.3587   3302448.4319   5422886.8635   5  14   2.0116   3.1800   5.5759   0.6705   2.8860   1.1608   0.00    0.0
2018/11/06 08:21:05.000   -414902.2707   3302449.0070   5422887.4945   5  14   2.0115   3.1801   5.5762   0.6702   2.8863   1.1602   0.00    0.0
2018/11/06 08:21:06.000   -414902.2545   3302449.0899   5422887.5558   5  14   2.0114   3.1801   5.5766   0.6698   2.8865   1.1596   0.00    0.0
2018/11/06 08:21:07.000   -414902.4267   3302449.1931   5422886.9439   5  14   2.0113   3.1801   5.5769   0.6695   2.8868   1.1590   0.00    0.0
2018/11/06 08:21:08.000   -414902.4029   3302448.9847   5422886.7516   5  14   2.0112   3.1802   5.5772   0.6691   2.8870   1.1583   0.00    0.0
2018/11/06 08:21:09.000   -414902.1791   3302449.0965   5422887.6636   5  14   2.0111   3.1802   5.5775   0.6688   2.8873   1.1577   0.00    0.0
2018/11/06 08:21:10.000   -414902.1154   3302449.2855   5422886.9572   5  14   2.0110   3.1802   5.5778   0.6684   2.8875   1.1571   0.00    0.0
2018/11/06 08:21:11.000   -414902.2415   3302449.2108   5422887.2134   5  14   2.0109   3.1803   5.5782   0.6681   2.8878   1.1565   0.00    0.0
2018/11/06 08:21:12.000   -414901.9103   3302449.2865   5422887.8654   5  14   2.0108   3.1803   5.5785   0.6677   2.8881   1.1559   0.00    0.0
2018/11/06 08:21:13.000   -414901.8504   3302449.1431   5422886.4021   5  14   2.0107   3.1804   5.5788   0.6674   2.8883   1.1553   0.00    0.0
2018/11/06 08:21:14.000   -414901.9517   3302449.2223   5422887.3150   5  14   2.0106   3.1804   5.5791   0.6670   2.8886   1.1547   0.00    0.0
2018/11/06 08:21:15.000   -414901.9961   3302449.1573   5422887.2447   5  14   2.0105   3.1804   5.5794   0.6667   2.8888   1.1540   0.00    0.0
2018/11/06 08:21:16.000   -414901.9068   3302449.2496   5422887.5821   5  14   2.0104   3.1805   5.5798   0.6663   2.8891   1.1534   0.00    0.0
2018/11/06 08:21:17.000   -414901.9823   3302449.3160   5422887.8450   5  14   2.0103   3.1805   5.5801   0.6660   2.8893   1.1528   0.00    0.0
2018/11/06 08:21:18.000   -414901.7660   3302449.7645   5422887.9936   5  14   2.0102   3.1805   5.5804   0.6656   2.8896   1.1522   0.00    0.0
2018/11/06 08:21:19.000   -414902.0598   3302449.9685   5422888.2871   5  14   2.0102   3.1806   5.5807   0.6653   2.8898   1.1516   0.00    0.0
2018/11/06 08:21:20.000   -414901.8076   3302449.8272   5422888.0760   5  14   2.0101   3.1806   5.5810   0.6649   2.8901   1.1509   0.00    0.0
2018/11/06 08:21:21.000   -414901.7328   3302450.0840   5422888.1553   5  14   2.0100   3.1806   5.5813   0.6646   2.8903   1.1503   0.00    0.0
2018/11/06 08:21:22.000   -414901.6958   3302450.0954   5422888.3327   5  14   2.0099   3.1807   5.5817   0.6642   2.8906   1.1497   0.00    0.0
2018/11/06 08:21:23.000   -414901.6782   3302449.9407   5422888.4221   5  14   2.0098   3.1807   5.5820   0.6638   2.8909   1.1491   0.00    0.0
2018/11/06 08:21:24.000   -414901.6900   3302450.1766   5422888.7545   5  14   2.0097   3.1807   5.5823   0.6635   2.8911   1.1484   0.00    0.0
2018/11/06 08:21:25.000   -414901.7777   3302450.2941   5422887.9744   5  14   2.0096   3.1808   5.5826   0.6631   2.8914   1.1478   0.00    0.0
2018/11/06 08:21:26.000   -414901.8671   3302450.1066   5422887.3256   5  14   2.0095   3.1808   5.5829   0.6628   2.8916   1.1472   0.00    0.0
2018/11/06 08:21:27.000   -414901.7129   3302450.3507   5422887.1426   5  14   2.0094   3.1809   5.5832   0.6624   2.8919   1.1466   0.00    0.0
2018/11/06 08:21:28.000   -414901.8667   3302450.5793   5422887.8386   5  14   2.0093   3.1809   5.5836   0.6621   2.8921   1.1459   0.00    0.0
2018/11/06 08:21:29.000   -414901.6420   3302450.1941   5422886.2386   5  14   2.0092   3.1809   5.5839   0.6617   2.8924   1.1453   0.00    0.0
2018/11/06 08:21:30.000   -414901.5384   3302450.0850   5422886.3028   5  14   2.0091   3.1810   5.5842   0.6613   2.8926   1.1447   0.00    0.0
2018/11/06 08:21:31.000   -414901.4654   3302450.4698   5422886.7249   5  14   2.0090   3.1810   5.5845   0.6610   2.8929   1.1440   0.00    0.0
2018/11/06 08:21:32.000   -414901.6240   3302450.1189   5422886.6340   5  14   2.0089   3.1810   5.5848   0.6606   2.8931   1.1434   0.00    0.0
2018/11/06 08:21:33.000   -414901.7947   3302450.2739   5422887.5861   5  14   2.0088   3.1811   5.5851   0.6603   2.8934   1.1428   0.00    0.0
2018/11/06 08:21:34.000   -414901.6257   3302450.3603   5422886.8405   5  14   2.0087   3.1811   5.5855   0.6599   2.8936   1.1421   0.00    0.0
2018/11/06 08:21:35.000   -414901.6941   3302450.8131   5422887.3357   5  14   2.0086   3.1811   5.5858   0.6595   2.8939   1.1415   0.00    0.0
2018/11/06 08:21:36.000   -414901.5195   3302450.4970   5422887.5201   5  14   2.0086   3.1812   5.5861   0.6592   2.8941   1.1409   0.00    0.0
2018/11/06 08:21:37.000   -414901.5483   3302450.8680   5422887.1389   5  14   2.0085   3.1812   5.5864   0.6588   2.8944   1.1402   0.00    0.0
2018/11/06 08:21:38.000   -414901.5845   3302450.9067   5422888.1163   5  14   2.0084   3.1812   5.5867   0.6585   2.8946   1.1396   0.00    0.0
2018/11/06 08:21:39.000   -414901.3247   3302451.3167   5422887.4964   5  14   2.0083   3.1813   5.5870   0.6581   2.8949   1.1390   0.00    0.0
2018/11/06 08:21:40.000   -414901.4156   3302450.8725   5422887.5386   5  14   2.0082   3.1813   5.5874   0.6577   2.8951   1.1383   0.00    0.0
2018/11/06 08:21:41.000   -414901.3826   3302450.7659   5422886.3693   5  14   2.0081   3.1813   5.5877   0.6574   2.8954   1.1377   0.00    0.0
2018/11/06 08:21:42.000   -414901.5191   3302450.7769   5422886.8446   5  14   2.0080   3.1814   5.5880   0.6570   2.8956   1.1371   0.00    0.0
2018/11/06 08:21:43.000   -414901.5263   3302451.1236   5422887.0651   5  14   2.0079   3.1814   5.5883   0.6566   2.8959   1.1364   0.00    0.0
2018/11/06 08:21:44.000   -414901.5775   3302451.0323   5422886.4754   5  14   2.0078   3.1814   5.5886   0.6563   2.8961   1.1358   0.00    0.0
2018/11/06 08:21:45.000   -414901.4286   3302451.0727   5422885.7214   5  14   2.0077   3.1815   5.5889   0.6559   2.8964   1.1351   0.00    0.0
2018/11/06 08:21:46.000   -414901.5773   3302451.0429   5422885.6930   5  14   2.0076   3.1815   5.5892   0.6555   2.8966   1.1345   0.00    0.0
2018/11/06 08:21:47.000   -414901.3491   3302451.5650   5422885.4111   5  14   2.0075   3.1815   5.5895   0.6552   2.8969   1.1339   0.00    0.0
2018/11/06 08:21:48.000   -414901.3341   3302451.4881   5422884.6339   5  14   2.0074   3.1816   5.5899   0.6548   2.8971   1.1332   0.00    0.0
2018/11/06 08:21:49.000   -414901.6379   3302451.3291   5422884.7796   5  14   2.0073   3.1816   5.5902   0.6545   2.8974   1.1326   0.00    0.0
2018/11/06 08:21:50.000   -414901.3068   3302451.5646   5422884.9384   5  14   2.0073   3.1816   5.5905   0.6541   2.8976   1.1319   0.00    0.0
2018/11/06 08:21:51.000   -414901.3545   3302451.3458   5422885.0597   5  14   2.0072   3.1817   5.5908   0.6537   2.8979   1.1313   0.00    0.0
2018/11/06 08:21:52.000   -414901.7219   3302451.4028   5422884.8211   5  14   2.0071   3.1817   5.5911   0.6533   2.8981   1.1306   0.00    0.0
2018/11/06 08:21:53.000   -414901.8019   3302451.3817   5422885.5700   5  14   2.0070   3.1817   5.5914   0.6530   2.8984   1.1300   0.00    0.0
2018/11/06 08:21:54.000   -414901.8757   3302451.5471   5422885.3850   5  14   2.0069   3.1818   5.5917   0.6526   2.8986   1.1293   0.00    0.0
2018/11/06 08:21:55.000   -414902.0325   3302451.2699   5422885.0567   5  14   2.0068   3.1818   5.5920   0.6522   2.8989   1.1287   0.00    0.0
2018/11/06 08:21:56.000   -414901.9408   3302450.8253   5422884.8948   5  14   2.0067   3.1818   5.5924   0.6519   2.8991   1.1280   0.00    0.0
2018/11/06 08:21:57.000   -414901.9120   3302451.4386   5422886.1010   5  14   2.0066   3.1819   5.5927   0.6515   2.8993   1.1274   0.00    0.0
2018/11/06 08:21:58.000   -414901.9282   3302451.8845   5422886.4291   5  14   2.0065   3.1819   5.5930   0.6511   2.8996   1.1267   0.00    0.0
2018/11/06 08:21:59.000   -414902.0926   3302451.8914   5422886.1172   5  14   2.0064   3.1819   5.5933   0.6508   2.8998   1.1261   0.00    0.0
2018/11/06 08:22:00.000   -414901.8836   3302452.1563   5422886.9662   5  14   2.0063   3.1820   5.5936   0.6504   2.9001   1.1254   0.00    0.0
2018/11/06 08:22:01.000   -414901.9208   3302452.1425   5422887.1858   5  14   2.0062   3.1820   5.5939   0.6500   2.9003   1.1248   0.00    0.0
2018/11/06 08:22:02.000   -414901.9096   3302451.8529   5422887.5939   5  14   2.0061   3.1820   5.5942   0.6496   2.9006   1.1241   0.00    0.0
2018/11/06 08:22:03.000   -414902.0310   3302451.5460   5422886.8752   5  14   2.0060   3.1821   5.5945   0.6493   2.9008   1.1235   0.00    0.0
2018/11/06 08:22:04.000   -414902.0456   3302451.5845   5422886.9657   5  14   2.0060   3.1821   5.5948   0.6489   2.9011   1.1228   0.00    0.0
2018/11/06 08:22:05.000   -414902.1842   3302451.5365   5422887.4286   5  14   2.0059   3.1821   5.5952   0.6485   2.9013   1.1222   0.00    0.0
2018/11/06 08:22:06.000   -414902.1795   3302451.4402   5422886.8946   5  14   2.0058   3.1822   5.5955   0.6482   2.9015   1.1215   0.00    0.0
2018/11/06 08:22:07.000   -414901.6809   3302451.3880   5422887.2704   5  14   2.0057   3.1822   5.5958   0.6478   2.9018   1.1209   0.00    0.0
2018/11/06 08:22:08.000   -414902.1410   3302451.1046   5422887.3254   5  14   2.0056   3.1822   5.5961   0.6474   2.9020   1.1202   0.00    0.0
2018/11/06 08:22:09.000   -414902.2415   3302450.9945   5422887.5613   5  14   2.0055   3.1823   5.5964   0.6470   2.9023   1.1195   0.00    0.0
2018/11/06 08:22:10.000   -414902.0165   3302450.8243   5422886.6652   5  14   2.0054   3.1823   5.5967   0.6467   2.9025   1.1189   0.00    0.0
2018/11/06 08:22:11.000   -414901.7987   3302450.9584   5422886.9751   5  14   2.0053   3.1823   5.5970   0.6463   2.9028   1.1182   0.00    0.0
2018/11/06 08:22:12.000   -414901.8569   3302451.0522   5422887.3208   5  14   2.0052   3.1824   5.5973   0.6459   2.9030   1.1176   0.00    0.0
2018/11/06 08:22:13.000   -414902.1064   3302450.6748   5422887.0323   5  14   2.0051   3.1824   5.5976   0.6455   2.9032   1.1169   0.00    0.0
2018/11/06 08:22:14.000   -414902.0661   3302450.8848   5422887.6776   5  14   2.0050   3.1824   5.5979   0.6451   2.9035   1.1162   0.00    0.0
2018/11/06 08:22:15.000   -414901.8998   3302450.6440   5422887.0638   5  14   2.0049   3.1825   5.5982   0.6448   2.9037   1.1156   0.00    0.0
2018/11/06 08:22:16.000   -414902.0658   3302450.5982   5422887.4192   5  14   2.0048   3.1825   5.5986   0.6444   2.9040   1.1149   0.00    0.0
2018/11/06 08:22:17.000   -414902.2418   3302450.3440   5422887.0423   5  14   2.0048   3.1825   5.5989   0.6440   2.9042   1.1142   0.00    0.0
2018/11/06 08:22:18.000   -414902.2231   3302450.1436   5422886.9391   5  14   2.0047   3.1825   5.5992   0.6436   2.9045   1.1136   0.00    0.0
2018/11/06 08:22:19.000   -414902.4690   3302450.1141   5422887.6614   5  14   2.0046   3.1826   5.5995   0.6433   2.9047   1.1129   0.00    0.0
2018/11/06 08:22:20.000   -414902.5222   3302450.2180   5422887.8510   5  14   2.0045   3.1826   5.5998   0.6429   2.9049   1.1122   0.00    0.0
2018/11/06 08:22:21.000   -414902.5205   3302449.9822   5422887.4637   5  14   2.0044   3.1826   5.6001   0.6425   2.9052   1.1116   0.00    0.0
2018/11/06 08:22:22.000   -414902.6311   3302450.4003   5422887.9050   5  14   2.0043   3.1827   5.6004   0.6421   2.9054   1.1109   0.00    0.0
2018/11/06 08:22:23.000   -414902.8267   3302450.0006   5422888.3605   5  14   2.0042   3.1827   5.6007   0.6417   2.9057   1.1102   0.00    0.0
2018/11/06 08:22:24.000   -414902.9152   3302450.1010   5422888.3210   5  14   2.0041   3.1827   5.6010   0.6413   2.9059   1.1096   0.00    0.0
2018/11/06 08:22:25.000   -414902.8931   3302450.1104   5422888.9007   5  14   2.0040   3.1828   5.6013   0.6410   2.9061   1.1089   0.00    0.0
2018/11/06 08:22:26.000   -414902.6808   3302449.9552   5422888.4742   5  14   2.0039   3.1828   5.6016   0.6406   2.9064   1.1082   0.00    0.0
2018/11/06 08:22:27.000   -414902.9256   3302450.3882   5422889.2700   5  14   2.0038   3.1828   5.6019   0.6402   2.9066   1.1075   0.00    0.0
2018/11/06 08:22:28.000   -414902.7507   3302449.7969   5422888.2336   5  14   2.0037   3.1829   5.6022   0.6398   2.9069   1.1069   0.00    0.0
2018/11/06 08:22:29.000   -414902.5669   3302449.9245   5422888.2334   5  14   2.0037   3.1829   5.6025   0.6394   2.9071   1.1062   0.00    0.0
2018/11/06 08:22:30.000   -414902.6402   3302449.7805   5422888.4083   5  14   2.0036   3.1829   5.6028   0.6390   2.9073   1.1055   0.00    0.0
2018/11/06 08:22:31.000   -414902.7612   3302449.5895   5422888.6037   5  14   2.0035   3.1829   5.6032   0.6387   2.9076   1.1048   0.00    0.0
2018/11/06 08:22:32.000   -414902.6718   3302449.9363   5422888.3762   5  14   2.0034   3.1830   5.6035   0.6383   2.9078   1.1042   0.00    0.0
2018/11/06 08:22:33.000   -414902.7290   3302449.7541   5422888.0469   5  14   2.0033   3.1830   5.6038   0.6379   2.9080   1.1035   0.00    0.0
2018/11/06 08:22:34.000   -414902.7149   3302450.0021   5422888.0710   5  14   2.0032   3.1830   5.6041   0.6375   2.9083   1.1028   0.00    0.0
2018/11/06 08:22:35.000   -414902.8124   3302449.9533   5422888.3648   5  14   2.0031   3.1831   5.6044   0.6371   2.9085   1.1021   0.00    0.0
2018/11/06 08:22:36.000   -414902.8398   3302449.7612   5422887.4885   5  14   2.0030   3.1831   5.6047   0.6367   2.9088   1.1014   0.00    0.0
2018/11/06 08:22:37.000   -414902.7932   3302450.2235   5422888.2822   5  14   2.0029   3.1831   5.6050   0.6363   2.9090   1.1008   0.00    0.0
2018/11/06 08:22:38.000   -414902.7182   3302449.9924   5422887.7715   5  14   2.0028   3.1832   5.6053   0.6360   2.9092   1.1001   0.00    0.0
2018/11/06 08:22:39.000   -414902.5879   3302450.1778   5422888.5613   5  14   2.0027   3.1832   5.6056   0.6356   2.9095   1.0994   0.00    0.0
2018/11/06 08:22:40.000   -414902.6409   3302450.2903   5422888.5139   5  14   2.0027   3.1832   5.6059   0.6352   2.9097   1.0987   0.00    0.0
2018/11/06 08:22:41.000   -414902.6732   3302450.4831   5422888.2119   5  14   2.0026   3.1833   5.6062   0.6348   2.9099   1.0980   0.00    0.0
2018/11/06 08:22:42.000   -414902.3282   3302450.2312   5422887.6223   5  14   2.0025   3.1833   5.6065   0.6344   2.9102   1.0973   0.00    0.0
2018/11/06 08:22:43.000   -414902.2741   3302450.2731   5422888.4341   5  14   2.0024   3.1833   5.6068   0.6340   2.9104   1.0966   0.00    0.0
2018/11/06 08:22:44.000   -414902.4809   3302450.0972   5422888.4368   5  14   2.0023   3.1833   5.6071   0.6336   2.9106   1.0960   0.00    0.0
2018/11/06 08:22:45.000   -414902.4180   3302450.3298   5422888.1966   5  14   2.0022   3.1834   5.6074   0.6332   2.9109   1.0953   0.00    0.0
2018/11/06 08:22:46.000   -414902.2167   3302450.0328   5422888.3085   5  14   2.0021   3.1834   5.6077   0.6328   2.9111   1.0946   0.00    0.0
2018/11/06 08:22:47.000   -414902.3293   3302449.7885   5422888.6628   5  14   2.0020   3.1834   5.6080   0.6324   2.9114   1.0939   0.00    0.0
2018/11/06 08:22:48.000   -414902.3966   3302449.8917   5422888.8289   5  14   2.0019   3.1835   5.6083   0.6320   2.9116   1.0932   0.00    0.0
2018/11/06 08:22:49.000   -414902.3340   3302450.1979   5422888.8845   5  14   2.0018   3.1835   5.6086   0.6317   2.9118   1.0925   0.00    0.0
2018/11/06 08:22:50.000   -414902.4104   3302449.9845   5422888.6280   5  14   2.0017   3.1835   5.6089   0.6313   2.9121   1.0918   0.00    0.0
2018/11/06 08:22:51.000   -414902.4788   3302449.9689   5422889.2625   5  14   2.0017   3.1835   5.6092   0.6309   2.9123   1.0911   0.00    0.0
2018/11/06 08:22:52.000   -414902.3600   3302449.9939   5422889.3200   5  14   2.0016   3.1836   5.6095   0.6305   2.9125   1.0904   0.00    0.0
2018/11/06 08:22:53.000   -414902.3706   3302450.4731   5422889.8131   5  14   2.0015   3.1836   5.6098   0.6301   2.9128   1.0897   0.00    0.0
2018/11/06 08:22:54.000   -414902.2804   3302450.9357   5422889.6267   5  14   2.0014   3.1836   5.6101   0.6297   2.9130   1.0890   0.00    0.0
2018/11/06 08:22:55.000   -414902.3102   3302450.6434   5422889.5649   5  14   2.0013   3.1837   5.6104   0.6293   2.9132   1.0883   0.00    0.0
2018/11/06 08:22:56.000   -414902.2616   3302450.7003   5422888.9296   5  14   2.0012   3.1837   5.6107   0.6289   2.9135   1.0876   0.00    0.0
2018/11/06 08:22:57.000   -414902.2600   3302451.1083   5422888.7928   5  14   2.0011   3.1837   5.6110   0.6285   2.9137   1.0869   0.00    0.0
2018/11/06 08:22:58.000   -414902.1579   3302450.9797   5422888.7954   5  14   2.0010   3.1837   5.6113   0.6281   2.9139   1.0862   0.00    0.0
2018/11/06 08:22:59.000   -414902.4886   3302451.1806   5422888.3260   5  14   2.0009   3.1838   5.6116   0.6277   2.9142   1.0855   0.00    0.0
2018/11/06 08:23:00.000   -414902.5232   3302451.0125   5422887.8068   5  14   2.0008   3.1838   5.6119   0.6273   2.9144   1.0848   0.00    0.0
2018/11/06 08:23:01.000   -414902.4119   3302451.1026   5422887.5991   5  14   2.0007   3.1838   5.6122   0.6269   2.9146   1.0841   0.00    0.0
2018/11/06 08:23:02.000   -414902.3065   3302451.2483   5422888.5005   5  14   2.0007   3.1839   5.6125   0.6265   2.9148   1.0834   0.00    0.0
2018/11/06 08:23:03.000   -414902.2460   3302450.8453   5422887.7441   5  14   2.0006   3.1839   5.6128   0.6261   2.9151   1.0827   0.00    0.0
2018/11/06 08:23:04.000   -414902.2101   3302451.3281   5422887.8010   5  14   2.0005   3.1839   5.6131   0.6257   2.9153   1.0820   0.00    0.0
2018/11/06 08:23:05.000   -414902.2953   3302450.9727   5422887.7817   5  14   2.0004   3.1839   5.6134   0.6253   2.9155   1.0813   0.00    0.0
2018/11/06 08:23:06.000   -414902.3042   3302451.0135   5422887.7737   5  14   2.0003   3.1840   5.6137   0.6249   2.9158   1.0806   0.00    0.0
2018/11/06 08:23:07.000   -414902.2311   3302450.9089   5422887.5151   5  14   2.0002   3.1840   5.6140   0.6245   2.9160   1.0799   0.00    0.0
2018/11/06 08:23:08.000   -414902.3137   3302450.6183   5422886.7724   5  14   2.0001   3.1840   5.6143   0.6241   2.9162   1.0792   0.00    0.0
2018/11/06 08:23:09.000   -414902.2278   3302450.9715   5422887.3570   5  14   2.0000   3.1841   5.6146   0.6237   2.9165   1.0785   0.00    0.0
2018/11/06 08:23:10.000   -414902.0484   3302450.8635   5422887.5605   5  14   1.9999   3.1841   5.6149   0.6233   2.9167   1.0778   0.00    0.0
2018/11/06 08:23:11.000   -414902.1287   3302450.4641   5422886.5039   5  14   1.9999   3.1841   5.6152   0.6229   2.9169   1.0771   0.00    0.0
2018/11/06 08:23:12.000   -414902.1257   3302450.4398   5422887.3607   5  14   1.9998   3.1841   5.6155   0.6225   2.9171   1.0764   0.00    0.0
2018/11/06 08:23:13.000   -414901.8370   3302450.9221   5422888.1285   5  14   1.9997   3.1842   5.6158   0.6221   2.9174   1.0757   0.00    0.0
2018/11/06 08:23:14.000   -414902.0080   3302450.6939   5422887.9748   5  14   1.9996   3.1842   5.6161   0.6217   2.9176   1.0749   0.00    0.0
2018/11/06 08:23:15.000   -414902.2756   3302451.0435   5422888.0416   5  14   1.9995   3.1842   5.6164   0.6213   2.9178   1.0742   0.00    0.0
2018/11/06 08:23:16.000   -414902.1681   3302451.0351   5422888.1983   5  14   1.9994   3.1842   5.6167   0.6209   2.9181   1.0735   0.00    0.0
2018/11/06 08:23:17.000   -414902.2470   3302451.0847   5422888.2430   5  14   1.9993   3.1843   5.6170   0.6204   2.9183   1.0728   0.00    0.0
2018/11/06 08:23:18.000   -414901.9759   3302450.9779   5422888.5471   5  14   1.9992   3.1843   5.6173   0.6200   2.9185   1.0721   0.00    0.0
2018/11/06 08:23:19.000   -414902.1652   3302450.1461   5422887.9000   5  14   1.9991   3.1843   5.6176   0.6196   2.9187   1.0714   0.00    0.0
2018/11/06 08:23:20.000   -414902.0267   3302450.5155   5422887.9106   5  14   1.9990   3.1844   5.6179   0.6192   2.9190   1.0706   0.00    0.0
2018/11/06 08:23:21.000   -414902.3622   3302450.5729   5422887.3324   5  14   1.9990   3.1844   5.6182   0.6188   2.9192   1.0699   0.00    0.0
2018/11/06 08:23:22.000   -414902.4324   3302450.7733   5422887.4448   5  14   1.9989   3.1844   5.6185   0.6184   2.9194   1.0692   0.00    0.0
2018/11/06 08:23:23.000   -414902.4671   3302450.6618   5422887.5512   5  14   1.9988   3.1844   5.6188   0.6180   2.9196   1.0685   0.00    0.0
2018/11/06 08:23:24.000   -414902.5308   3302450.1756   5422887.3558   5  14   1.9987   3.1845   5.6191   0.6176   2.9199   1.0678   0.00    0.0
2018/11/06 08:23:25.000   -414902.6258   3302450.2997   5422888.0807   5  14   1.9986   3.1845   5.6194   0.6172   2.9201   1.0670   0.00    0.0
2018/11/06 08:23:26.000   -414902.3215   3302450.3453   5422887.8261   5  14   1.9985   3.1845   5.6197   0.6168   2.9203   1.0663   0.00    0.0
2018/11/06 08:23:27.000   -414902.2996   3302450.1755   5422887.9296   5  14   1.9984   3.1845   5.6200   0.6164   2.9205   1.0656   0.00    0.0
2018/11/06 08:23:28.000   -414902.4093   3302449.9680   5422887.4626   5  14   1.9983   3.1846   5.6203   0.6159   2.9208   1.0649   0.00    0.0
2018/11/06 08:23:29.000   -414902.2083   3302450.0683   5422887.2695   5  14   1.9982   3.1846   5.6205   0.6155   2.9210   1.0641   0.00    0.0
2018/11/06 08:23:30.000   -414902.1539   3302450.1531   5422887.5169   5  14   1.9982   3.1846   5.6208   0.6151   2.9212   1.0634   0.00    0.0
2018/11/06 08:23:31.000   -414902.3221   3302450.0580   5422887.2540   5  14   1.9981   3.1846   5.6211   0.6147   2.9214   1.0627   0.00    0.0
2018/11/06 08:23:32.000   -414902.2638   3302450.0692   5422886.8168   5  14   1.9980   3.1847   5.6214   0.6143   2.9217   1.0620   0.00    0.0
2018/11/06 08:23:33.000   -414902.1876   3302450.0585   5422887.4362   5  14   1.9979   3.1847   5.6217   0.6139   2.9219   1.0612   0.00    0.0
2018/11/06 08:23:34.000   -414902.3464   3302449.7694   5422886.2020   5  14   1.9978   3.1847   5.6220   0.6135   2.9221   1.0605   0.00    0.0
2018/11/06 08:23:35.000   -414902.2866   3302449.6562   5422886.3810   5  14   1.9977   3.1847   5.6223   0.6130   2.9223   1.0598   0.00    0.0
2018/11/06 08:23:36.000   -414902.1798   3302449.5550   5422886.6486   5  14   1.9976   3.1848   5.6226   0.6126   2.9226   1.0590   0.00    0.0
2018/11/06 08:23:37.000   -414902.3155   3302449.3999   5422886.2174   5  14   1.9975   3.1848   5.6229   0.6122   2.9228   1.0583   0.00    0.0
2018/11/06 08:23:38.000   -414902.4982   3302448.9218   5422885.8387   5  14   1.9974   3.1848   5.6232   0.6118   2.9230   1.0576   0.00    0.0
2018/11/06 08:23:39.000   -414902.5672   3302449.0219   5422886.5320   5  14   1.9974   3.1849   5.6235   0.6114   2.9232   1.0568   0.00    0.0
2018/11/06 08:23:40.000   -414902.6406   3302449.0462   5422886.5857   5  14   1.9973   3.1849   5.6238   0.6110   2.9235   1.0561   0.00    0.0
2018/11/06 08:23:41.000   -414902.6899   3302448.8897   5422886.6591   5  14   1.9972   3.1849   5.6241   0.6105   2.9237   1.0554   0.00    0.0
2018/11/06 08:23:42.000   -414902.4706   3302448.7814   5422886.3900   5  14   1.9971   3.1849   5.6244   0.6101   2.9239   1.0546   0.00    0.0
2018/11/06 08:23:43.000   -414902.4407   3302448.9758   5422886.4100   5  14   1.9970   3.1850   5.6246   0.6097   2.9241   1.0539   0.00    0.0
2018/11/06 08:23:44.000   -414902.5890   3302448.3548   5422884.9650   5  14   1.9969   3.1850   5.6249   0.6093   2.9243   1.0531   0.00    0.0
2018/11/06 08:23:45.000   -414902.7594   3302448.4257   5422885.0781   5  14   1.9968   3.1850   5.6252   0.6089   2.9246   1.0524   0.00    0.0
2018/11/06 08:23:46.000   -414902.9890   3302448.5178   5422885.2082   5  14   1.9967   3.1850   5.6255   0.6084   2.9248   1.0517   0.00    0.0
2018/11/06 08:23:47.000   -414902.9074   3302448.7902   5422885.9847   5  14   1.9967   3.1851   5.6258   0.6080   2.9250   1.0509   0.00    0.0
2018/11/06 08:23:48.000   -414902.9633   3302448.6453   5422886.8435   5  14   1.9966   3.1851   5.6261   0.6076   2.9252   1.0502   0.00    0.0
2018/11/06 08:23:49.000   -414903.0683   3302448.6992   5422884.6001   5  14   1.9965   3.1851   5.6264   0.6072   2.9254   1.0494   0.00    0.0
2018/11/06 08:23:50.000   -414902.9832   3302448.7422   5422884.7578   5  14   1.9964   3.1851   5.6267   0.6067   2.9257   1.0487   0.00    0.0
2018/11/06 08:23:51.000   -414903.2216   3302448.6021   5422882.9061   5  14   1.9963   3.1852   5.6270   0.6063   2.9259   1.0479   0.00    0.0
2018/11/06 08:23:52.000   -414903.2989   3302448.6080   5422884.8890   5  14   1.9962   3.1852   5.6273   0.6059   2.9261   1.0472   0.00    0.0
2018/11/06 08:23:53.000   -414903.3473   3302448.4703   5422883.9674   5  14   1.9961   3.1852   5.6276   0.6055   2.9263   1.0464   0.00    0.0
2018/11/06 08:23:54.000   -414903.3407   3302448.3140   5422884.0785   5  14   1.9960   3.1852   5.6278   0.6050   2.9265   1.0457   0.00    0.0
2018/11/06 08:23:55.000   -414903.3198   3302448.1934   5422883.7146   5  14   1.9960   3.1852   5.6281   0.6046   2.9268   1.0449   0.00    0.0
2018/11/06 08:23:56.000   -414903.1514   3302448.3954   5422884.4419   5  14   1.9959   3.1853   5.6284   0.6042   2.9270   1.0442   0.00    0.0
2018/11/06 08:23:57.000   -414903.5969   3302448.4207   5422883.6330   5  14   1.9958   3.1853   5.6287   0.6038   2.9272   1.0434   0.00    0.0
2018/11/06 08:23:58.000   -414903.3171   3302448.5853   5422885.0647   5  14   1.9957   3.1853   5.6290   0.6033   2.9274   1.0427   0.00    0.0
2018/11/06 08:23:59.000   -414903.2996   3302448.3380   5422884.6338   5  14   1.9956   3.1853   5.6293   0.6029   2.9276   1.0419   0.00    0.0
2018/11/06 08:24:00.000   -414903.3838   3302448.0315   5422883.9893   5  14   1.9955   3.1854   5.6296   0.6025   2.9278   1.0412   0.00    0.0
2018/11/06 08:24:01.000   -414903.0952   3302448.0647   5422884.2654   5  14   1.9954   3.1854   5.6299   0.6021   2.9281   1.0404   0.00    0.0
2018/11/06 08:24:02.000   -414902.8557   3302448.6206   5422884.6982   5  14   1.9953   3.1854   5.6302   0.6016   2.9283   1.0397   0.00    0.0
2018/11/06 08:24:03.000   -414902.9054   3302448.2643   5422884.3011   5  14   1.9953   3.1854   5.6304   0.6012   2.9285   1.0389   0.00    0.0
2018/11/06 08:24:04.000   -414902.7937   3302448.0592   5422884.1145   5  14   1.9952   3.1855   5.6307   0.6008   2.9287   1.0381   0.00    0.0
2018/11/06 08:24:05.000   -414903.2848   3302448.5319   5422883.9112   5  14   1.9951   3.1855   5.6310   0.6003   2.9289   1.0374   0.00    0.0
2018/11/06 08:24:06.000   -414903.1085   3302448.6460   5422884.0694   5  14   1.9950   3.1855   5.6313   0.5999   2.9291   1.0366   0.00    0.0
2018/11/06 08:24:07.000   -414903.2932   3302448.5320   5422884.4342   5  14   1.9949   3.1855   5.6316   0.5995   2.9294   1.0359   0.00    0.0
2018/11/06 08:24:08.000   -414903.3466   3302448.0317   5422884.0872   5  14   1.9948   3.1856   5.6319   0.5990   2.9296   1.0351   0.00    0.0
2018/11/06 08:24:09.000   -414903.5446   3302448.4798   5422883.3611   5  14   1.9947   3.1856   5.6322   0.5986   2.9298   1.0343   0.00    0.0
2018/11/06 08:24:10.000   -414903.2391   3302448.9514   5422884.0927   5  14   1.9946   3.1856   5.6324   0.5982   2.9300   1.0336   0.00    0.0
2018/11/06 08:24:11.000   -414903.1779   3302448.9289   5422883.4923   5  14   1.9946   3.1856   5.6327   0.5977   2.9302   1.0328   0.00    0.0
2018/11/06 08:24:12.000   -414903.2889   3302448.9164   5422884.4945   5  14   1.9945   3.1856   5.6330   0.5973   2.9304   1.0320   0.00    0.0
2018/11/06 08:24:13.000   -414903.2070   3302449.0941   5422883.8253   5  14   1.9944   3.1857   5.6333   0.5969   2.9306   1.0313   0.00    0.0
2018/11/06 08:24:14.000   -414903.0221   3302448.6842   5422885.5502   5  14   1.9943   3.1857   5.6336   0.5964   2.9309   1.0305   0.00    0.0
2018/11/06 08:24:15.000   -414903.0131   3302449.1700   5422885.0123   5  14   1.9942   3.1857   5.6339   0.5960   2.9311   1.0297   0.00    0.0
2018/11/06 08:24:16.000   -414903.0678   3302448.8378   5422883.9527   5  14   1.9941   3.1857   5.6342   0.5956   2.9313   1.0290   0.00    0.0
2018/11/06 08:24:17.000   -414903.1083   3302448.9934   5422883.0382   5  14   1.9940   3.1858   5.6344   0.5951   2.9315   1.0282   0.00    0.0
2018/11/06 08:24:18.000   -414902.8617   3302448.9653   5422884.1797   5  14   1.9939   3.1858   5.6347   0.5947   2.9317   1.0274   0.00    0.0
2018/11/06 08:24:19.000   -414902.9162   3302449.1476   5422884.3271   5  14   1.9939   3.1858   5.6350   0.5942   2.9319   1.0266   0.00    0.0
2018/11/06 08:24:20.000   -414903.0074   3302448.5894   5422883.8430   5  14   1.9938   3.1858   5.6353   0.5938   2.9321   1.0259   0.00    0.0
2018/11/06 08:24:21.000   -414902.8189   3302448.7739   5422884.7941   5  14   1.9937   3.1858   5.6356   0.5934   2.9323   1.0251   0.00    0.0
2018/11/06 08:24:22.000   -414902.7280   3302448.9708   5422885.5229   5  14   1.9936   3.1859   5.6359   0.5929   2.9326   1.0243   0.00    0.0
2018/11/06 08:24:23.000   -414902.7564   3302449.3178   5422885.7018   5  14   1.9935   3.1859   5.6361   0.5925   2.9328   1.0235   0.00    0.0
2018/11/06 08:24:24.000   -414902.5307   3302449.4811   5422885.7145   5  14   1.9934   3.1859   5.6364   0.5920   2.9330   1.0228   0.00    0.0
2018/11/06 08:24:25.000   -414902.4440   3302449.5808   5422886.3471   5  14   1.9933   3.1859   5.6367   0.5916   2.9332   1.0220   0.00    0.0
2018/11/06 08:24:26.000   -414902.3889   3302449.6588   5422885.6662   5  14   1.9933   3.1860   5.6370   0.5912   2.9334   1.0212   0.00    0.0
2018/11/06 08:24:27.000   -414902.4197   3302449.4554   5422885.6545   5  14   1.9932   3.1860   5.6373   0.5907   2.9336   1.0204   0.00    0.0
2018/11/06 08:24:28.000   -414902.1937   3302449.6114   5422886.7408   5  14   1.9931   3.1860   5.6376   0.5903   2.9338   1.0196   0.00    0.0
2018/11/06 08:24:29.000   -414902.3895   3302449.6774   5422885.5799   5  14   1.9930   3.1860   5.6378   0.5898   2.9340   1.0189   0.00    0.0
2018/11/06 08:24:30.000   -414902.3835   3302449.6001   5422886.2832   5  14   1.9929   3.1860   5.6381   0.5894   2.9342   1.0181   0.00    0.0
2018/11/06 08:24:31.000   -414902.2701   3302450.0450   5422885.6758   5  14   1.9928   3.1861   5.6384   0.5889   2.9344   1.0173   0.00    0.0
2018/11/06 08:24:32.000   -414902.3111   3302449.7506   5422886.0190   5  14   1.9927   3.1861   5.6387   0.5885   2.9347   1.0165   0.00    0.0
2018/11/06 08:24:33.000   -414902.1813   3302450.0256   5422887.5218   5  14   1.9927   3.1861   5.6390   0.5880   2.9349   1.0157   0.00    0.0
2018/11/06 08:24:34.000   -414902.2787   3302450.0514   5422886.9595   5  14   1.9926   3.1861   5.6393   0.5876   2.9351   1.0149   0.00    0.0
2018/11/06 08:24:35.000   -414902.4140   3302449.8902   5422886.8406   5  14   1.9925   3.1861   5.6395   0.5871   2.9353   1.0141   0.00    0.0
2018/11/06 08:24:36.000   -414902.2509   3302449.8356   5422886.6627   5  14   1.9924   3.1862   5.6398   0.5867   2.9355   1.0133   0.00    0.0
2018/11/06 08:24:37.000   -414902.3088   3302449.7911   5422886.0341   5  14   1.9923   3.1862   5.6401   0.5862   2.9357   1.0125   0.00    0.0
2018/11/06 08:24:38.000   -414902.4900   3302450.0451   5422886.3185   5  14   1.9922   3.1862   5.6404   0.5858   2.9359   1.0118   0.00    0.0
2018/11/06 08:24:39.000   -414902.3787   3302450.2351   5422886.3200   5  14   1.9921   3.1862   5.6407   0.5853   2.9361   1.0110   0.00    0.0
2018/11/06 08:24:40.000   -414902.4505   3302450.3513   5422886.5532   5  14   1.9921   3.1862   5.6409   0.5849   2.9363   1.0102   0.00    0.0
2018/11/06 08:24:41.000   -414902.5231   3302450.2855   5422886.1907   5  14   1.9920   3.1863   5.6412   0.5844   2.9365   1.0094   0.00    0.0
2018/11/06 08:24:42.000   -414902.3043   3302450.4351   5422886.6257   5  14   1.9919   3.1863   5.6415   0.5840   2.9367   1.0086   0.00    0.0
2018/11/06 08:24:43.000   -414902.3328   3302450.4935   5422886.7809   5  14   1.9918   3.1863   5.6418   0.5835   2.9369   1.0078   0.00    0.0
2018/11/06 08:24:44.000   -414902.1169   3302450.2931   5422886.3492   5  14   1.9917   3.1863   5.6421   0.5831   2.9371   1.0070   0.00    0.0
2018/11/06 08:24:45.000   -414902.2871   3302450.0779   5422885.6562   5  14   1.9916   3.1863   5.6423   0.5826   2.9374   1.0062   0.00    0.0
2018/11/06 08:24:46.000   -414902.2517   3302450.0712   5422885.6882   5  14   1.9915   3.1864   5.6426   0.5822   2.9376   1.0054   0.00    0.0
2018/11/06 08:24:47.000   -414902.1677   3302450.1366   5422886.0082   5  14   1.9915   3.1864   5.6429   0.5817   2.9378   1.0046   0.00    0.0
2018/11/06 08:24:48.000   -414902.2088   3302450.3387   5422885.5286   5  14   1.9914   3.1864   5.6432   0.5813   2.9380   1.0038   0.00    0.0
2018/11/06 08:24:49.000   -414901.9922   3302449.9501   5422886.1716   5  14   1.9913   3.1864   5.6434   0.5808   2.9382   1.0030   0.00    0.0
2018/11/06 08:24:50.000   -414901.9667   3302450.2415   5422886.3056   5  14   1.9912   3.1864   5.6437   0.5804   2.9384   1.0022   0.00    0.0
2018/11/06 08:24:51.000   -414901.8884   3302449.8174   5422885.4596   5  14   1.9911   3.1865   5.6440   0.5799   2.9386   1.0014   0.00    0.0
2018/11/06 08:24:52.000   -414901.8596   3302449.6613   5422885.2995   5  14   1.9910   3.1865   5.6443   0.5794   2.9388   1.0005   0.00    0.0
2018/11/06 08:24:53.000   -414901.7654   3302450.0452   5422885.4685   5  14   1.9909   3.1865   5.6446   0.5790   2.9390   0.9997   0.00    0.0
2018/11/06 08:24:54.000   -414901.5787   3302450.0377   5422885.4073   5  14   1.9909   3.1865   5.6448   0.5785   2.9392   0.9989   0.00    0.0
2018/11/06 08:24:55.000   -414901.6531   3302450.2385   5422886.4696   5  14   1.9908   3.1865   5.6451   0.5781   2.9394   0.9981   0.00    0.0
2018/11/06 08:24:56.000   -414901.5660   3302450.0802   5422887.2347   5  14   1.9907   3.1866   5.6454   0.5776   2.9396   0.9973   0.00    0.0
2018/11/06 08:24:57.000   -414901.3540   3302450.1075   5422886.8886   5  14   1.9906   3.1866   5.6457   0.5771   2.9398   0.9965   0.00    0.0
2018/11/06 08:24:58.000   -414901.4176   3302450.2468   5422887.1815   5  14   1.9905   3.1866   5.6459   0.5767   2.9400   0.9957   0.00    0.0
2018/11/06 08:24:59.000   -414901.4941   3302450.1385   5422886.4305   5  14   1.9904   3.1866   5.6462   0.5762   2.9402   0.9949   0.00    0.0
2018/11/06 08:25:00.000   -414901.7310   3302450.5393   5422887.0218   5  14   1.9904   3.1866   5.6465   0.5758   2.9404   0.9941   0.00    0.0
2018/11/06 08:25:01.000   -414901.6662   3302450.4088   5422887.4587   5  14   1.9903   3.1867   5.6468   0.5753   2.9406   0.9932   0.00    0.0
2018/11/06 08:25:02.000   -414901.6184   3302450.7663   5422888.3263   5  14   1.9902   3.1867   5.6470   0.5748   2.9408   0.9924   0.00    0.0
2018/11/06 08:25:03.000   -414901.9991   3302450.7346   5422887.7073   5  14   1.9901   3.1867   5.6473   0.5744   2.9410   0.9916   0.00    0.0
2018/11/06 08:25:04.000   -414901.8130   3302450.8445   5422887.5505   5  14   1.9900   3.1867   5.6476   0.5739   2.9412   0.9908   0.00    0.0
2018/11/06 08:25:05.000   -414901.7202   3302450.5923   5422888.3233   5  14   1.9899   3.1867   5.6479   0.5734   2.9414   0.9900   0.00    0.0
2018/11/06 08:25:06.000   -414901.7044   3302450.8383   5422888.7929   5  14   1.9899   3.1867   5.6481   0.5730   2.9416   0.9891   0.00    0.0
2018/11/06 08:25:07.000   -414901.8206   3302451.0005   5422888.7843   5  14   1.9898   3.1868   5.6484   0.5725   2.9418   0.9883   0.00    0.0
2018/11/06 08:25:08.000   -414901.9564   3302450.7317   5422888.2916   5  14   1.9897   3.1868   5.6487   0.5720   2.9420   0.9875   0.00    0.0
