% program   : RTKLIB ver.2.4.3
% inp file  : C:\Users\Satellite\Desktop\Разработки\Soft\RouteGNSS\TestData\ubin219e20.20o
% inp file  : C:\Users\Satellite\Desktop\Разработки\Soft\RouteGNSS\TestData\karg219e20.20G
% inp file  : C:\Users\Satellite\Desktop\Разработки\Soft\RouteGNSS\TestData\karg219e20.20N
% obs start : 2020/08/06 04:19:42.0 UTC (week2117 361200.0s)
% obs end   : 2020/08/06 05:19:32.0 UTC (week2117 364790.0s)
% pos mode  : Single
% elev mask : 15.0 deg
% ionos opt : Broadcast
% tropo opt : Saastamoinen
% ephemeris : Broadcast
% navi sys  : GPS GLONASS Galileo QZSS BDS NavIC SBAS
%
% (x/y/z-ecef=WGS84,Q=1:fix,2:float,3:sbas,4:dgps,5:single,6:ppp,ns=# of satellites)
%  UTC                       x-ecef(m)      y-ecef(m)      z-ecef(m)   Q  ns   sdx(m)   sdy(m)   sdz(m)  sdxy(m)  sdyz(m)  sdzx(m) age(s)  ratio
2020/08/06 04:19:42.000    652232.9329   3579838.1833   5220896.6351   5  13   3.2386   5.5703   7.2997  -1.3382   5.0937  -1.4451   0.00    0.0
2020/08/06 04:19:52.000    652232.9727   3579838.1290   5220896.7234   5  13   3.2385   5.5754   7.2973  -1.3366   5.0968  -1.4377   0.00    0.0
2020/08/06 04:20:02.000    652233.0157   3579837.8286   5220896.5639   5  13   3.2384   5.5804   7.2949  -1.3349   5.0999  -1.4304   0.00    0.0
2020/08/06 04:20:12.000    652233.0034   3579837.6483   5220896.4773   5  13   3.2384   5.5854   7.2924  -1.3332   5.1029  -1.4229   0.00    0.0
2020/08/06 04:20:22.000    652232.9302   3579837.7519   5220896.4960   5  13   3.2383   5.5904   7.2899  -1.3315   5.1058  -1.4155   0.00    0.0
2020/08/06 04:20:32.000    652232.8300   3579837.9362   5220896.5177   5  13   3.2383   5.5954   7.2873  -1.3298   5.1087  -1.4079   0.00    0.0
2020/08/06 04:20:42.000    652232.7022   3579838.0340   5220896.4605   5  13   3.2382   5.6003   7.2846  -1.3281   5.1115  -1.4004   0.00    0.0
2020/08/06 04:20:52.000    652232.6966   3579837.9160   5220896.3905   5  13   3.2382   5.6052   7.2820  -1.3263   5.1143  -1.3928   0.00    0.0
2020/08/06 04:21:02.000    652232.7259   3579837.7207   5220896.2813   5  13   3.2381   5.6101   7.2792  -1.3245   5.1170  -1.3851   0.00    0.0
2020/08/06 04:21:12.000    652232.8457   3579837.4499   5220896.1924   5  13   3.2381   5.6149   7.2765  -1.3228   5.1197  -1.3774   0.00    0.0
2020/08/06 04:21:22.000    652232.9664   3579837.4950   5220896.2760   5  13   3.2380   5.6197   7.2736  -1.3209   5.1223  -1.3697   0.00    0.0
2020/08/06 04:21:32.000    652233.0064   3579837.5264   5220896.3932   5  13   3.2380   5.6245   7.2708  -1.3191   5.1248  -1.3619   0.00    0.0
2020/08/06 04:21:42.000    652233.0669   3579837.5679   5220896.3778   5  13   3.2379   5.6293   7.2678  -1.3173   5.1273  -1.3540   0.00    0.0
2020/08/06 04:21:52.000    652233.0876   3579837.6023   5220896.3838   5  13   3.2379   5.6340   7.2649  -1.3154   5.1297  -1.3462   0.00    0.0
2020/08/06 04:22:02.000    652233.0194   3579837.6168   5220896.4170   5  13   3.2379   5.6387   7.2619  -1.3135   5.1321  -1.3382   0.00    0.0
2020/08/06 04:22:12.000    652232.9908   3579837.6022   5220896.3108   5  13   3.2378   5.6434   7.2588  -1.3117   5.1344  -1.3302   0.00    0.0
2020/08/06 04:22:22.000    652232.9412   3579837.7078   5220896.2958   5  13   3.2378   5.6480   7.2557  -1.3097   5.1367  -1.3222   0.00    0.0
2020/08/06 04:22:32.000    652232.9150   3579837.7823   5220896.3085   5  13   3.2378   5.6526   7.2525  -1.3078   5.1389  -1.3141   0.00    0.0
2020/08/06 04:22:42.000    652232.9807   3579837.8466   5220896.4234   5  13   3.2378   5.6572   7.2493  -1.3059   5.1410  -1.3060   0.00    0.0
2020/08/06 04:22:52.000    652233.0764   3579837.7875   5220896.4802   5  13   3.2377   5.6617   7.2461  -1.3039   5.1431  -1.2978   0.00    0.0
2020/08/06 04:23:02.000    652233.1432   3579837.6887   5220896.3923   5  13   3.2377   5.6662   7.2428  -1.3019   5.1451  -1.2896   0.00    0.0
2020/08/06 04:23:12.000    652233.0982   3579837.7912   5220896.5180   5  13   3.2377   5.6707   7.2395  -1.3000   5.1471  -1.2813   0.00    0.0
2020/08/06 04:23:22.000    652233.0245   3579837.8734   5220896.5863   5  13   3.2377   5.6752   7.2361  -1.2980   5.1490  -1.2730   0.00    0.0
2020/08/06 04:23:32.000    652232.9658   3579838.0021   5220896.6850   5  13   3.2377   5.6796   7.2327  -1.2959   5.1508  -1.2646   0.00    0.0
2020/08/06 04:23:42.000    652232.9585   3579838.0933   5220896.6940   5  13   3.2377   5.6840   7.2292  -1.2939   5.1526  -1.2562   0.00    0.0
2020/08/06 04:23:52.000    652232.9930   3579838.0680   5220896.7095   5  13   3.2376   5.6884   7.2257  -1.2919   5.1544  -1.2477   0.00    0.0
2020/08/06 04:24:02.000    652233.0515   3579837.9828   5220896.7887   5  13   3.2376   5.6927   7.2221  -1.2898   5.1560  -1.2391   0.00    0.0
2020/08/06 04:24:12.000    652233.1279   3579837.8888   5220896.8378   5  13   3.2376   5.6970   7.2185  -1.2877   5.1577  -1.2305   0.00    0.0
2020/08/06 04:24:22.000    652233.1274   3579837.9310   5220896.8670   5  13   3.2376   5.7012   7.2148  -1.2856   5.1592  -1.2219   0.00    0.0
2020/08/06 04:24:32.000    652233.0626   3579838.0266   5220896.8384   5  13   3.2376   5.7055   7.2111  -1.2835   5.1607  -1.2132   0.00    0.0
2020/08/06 04:24:42.000    652233.0671   3579838.1170   5220896.8653   5  13   3.2376   5.7097   7.2074  -1.2814   5.1622  -1.2044   0.00    0.0
2020/08/06 04:24:52.000    652233.0457   3579838.0518   5220896.7533   5  13   3.2376   5.7138   7.2036  -1.2792   5.1636  -1.1956   0.00    0.0
2020/08/06 04:25:02.000    652232.9693   3579838.0412   5220896.6493   5  13   3.2377   5.7180   7.1997  -1.2771   5.1649  -1.1867   0.00    0.0
2020/08/06 04:25:12.000    652232.9087   3579838.0730   5220896.6536   5  13   3.2377   5.7221   7.1959  -1.2749   5.1662  -1.1778   0.00    0.0
2020/08/06 04:25:22.000    652232.9114   3579838.0837   5220896.7269   5  13   3.2377   5.7262   7.1919  -1.2728   5.1674  -1.1687   0.00    0.0
2020/08/06 04:25:32.000    652232.9343   3579838.0974   5220896.7659   5  13   3.2377   5.7302   7.1880  -1.2706   5.1686  -1.1597   0.00    0.0
2020/08/06 04:25:42.000    652232.9433   3579838.0396   5220896.8045   5  13   3.2377   5.7342   7.1840  -1.2684   5.1697  -1.1505   0.00    0.0
2020/08/06 04:25:52.000    652232.9149   3579838.0620   5220896.7955   5  13   3.2377   5.7382   7.1799  -1.2662   5.1707  -1.1414   0.00    0.0
2020/08/06 04:26:02.000    652232.9278   3579838.1876   5220896.8996   5  13   3.2378   5.7421   7.1758  -1.2639   5.1717  -1.1321   0.00    0.0
2020/08/06 04:26:12.000    652232.9832   3579838.2244   5220896.8869   5  13   3.2378   5.7460   7.1717  -1.2617   5.1726  -1.1228   0.00    0.0
2020/08/06 04:26:22.000    652232.9927   3579838.2696   5220896.9350   5  13   3.2378   5.7499   7.1675  -1.2594   5.1735  -1.1134   0.00    0.0
2020/08/06 04:26:32.000    652232.9135   3579838.1587   5220896.9777   5  13   3.2378   5.7537   7.1633  -1.2572   5.1743  -1.1039   0.00    0.0
2020/08/06 04:26:42.000    652232.9171   3579838.1098   5220896.9340   5  13   3.2379   5.7575   7.1590  -1.2549   5.1751  -1.0944   0.00    0.0
2020/08/06 04:26:52.000    652232.8308   3579837.9760   5220896.9182   5  13   3.2379   5.7613   7.1547  -1.2526   5.1758  -1.0848   0.00    0.0
2020/08/06 04:27:02.000    652232.7587   3579837.9255   5220896.9280   5  13   3.2379   5.7651   7.1504  -1.2503   5.1764  -1.0751   0.00    0.0
2020/08/06 04:27:12.000    652232.7087   3579837.9375   5220896.9779   5  13   3.2380   5.7688   7.1460  -1.2480   5.1770  -1.0654   0.00    0.0
2020/08/06 04:27:22.000    652232.7044   3579837.9093   5220897.0168   5  13   3.2380   5.7724   7.1415  -1.2457   5.1776  -1.0555   0.00    0.0
2020/08/06 04:27:32.000    652232.7199   3579837.8410   5220896.9426   5  13   3.2381   5.7761   7.1371  -1.2434   5.1781  -1.0456   0.00    0.0
2020/08/06 04:27:42.000    652232.7747   3579837.8359   5220896.8778   5  13   3.2381   5.7797   7.1326  -1.2411   5.1785  -1.0357   0.00    0.0
2020/08/06 04:27:52.000    652232.8294   3579837.8633   5220896.8908   5  13   3.2382   5.7833   7.1280  -1.2387   5.1789  -1.0256   0.00    0.0
2020/08/06 04:28:02.000    652232.8752   3579837.8758   5220896.8557   5  13   3.2382   5.7868   7.1234  -1.2364   5.1792  -1.0155   0.00    0.0
2020/08/06 04:28:12.000    652232.8580   3579837.8443   5220896.8772   5  13   3.2383   5.7903   7.1188  -1.2340   5.1794  -1.0052   0.00    0.0
2020/08/06 04:28:22.000    652232.7845   3579837.9022   5220896.9518   5  13   3.2383   5.7938   7.1141  -1.2316   5.1796  -0.9949   0.00    0.0
2020/08/06 04:28:32.000    652232.7779   3579837.8843   5220896.9529   5  13   3.2384   5.7972   7.1094  -1.2292   5.1798  -0.9845   0.00    0.0
2020/08/06 04:28:42.000    652232.8440   3579837.8818   5220897.0051   5  13   3.2385   5.8006   7.1047  -1.2268   5.1799  -0.9740   0.00    0.0
2020/08/06 04:28:52.000    652232.8802   3579837.8157   5220896.9925   5  13   3.2385   5.8040   7.0999  -1.2244   5.1799  -0.9634   0.00    0.0
2020/08/06 04:29:02.000    652232.9494   3579837.7382   5220896.8719   5  13   3.2386   5.8073   7.0951  -1.2220   5.1799  -0.9527   0.00    0.0
2020/08/06 04:29:12.000    652233.0076   3579837.7972   5220896.9012   5  13   3.2386   5.8106   7.0902  -1.2196   5.1798  -0.9420   0.00    0.0
2020/08/06 04:29:22.000    652233.0445   3579837.8883   5220896.9797   5  13   3.2387   5.8139   7.0853  -1.2172   5.1797  -0.9311   0.00    0.0
2020/08/06 04:29:32.000    652233.0637   3579838.0167   5220897.0579   5  13   3.2388   5.8171   7.0804  -1.2148   5.1795  -0.9201   0.00    0.0
2020/08/06 04:29:42.000    652233.0830   3579838.0876   5220897.1011   5  13   3.2389   5.8203   7.0754  -1.2123   5.1793  -0.9090   0.00    0.0
2020/08/06 04:29:52.000    652233.0512   3579838.1069   5220897.0046   5  13   3.2389   5.8235   7.0704  -1.2099   5.1790  -0.8978   0.00    0.0
2020/08/06 04:30:02.000    652233.0183   3579838.0844   5220896.9447   5  13   3.2390   5.8266   7.0654  -1.2074   5.1787  -0.8864   0.00    0.0
2020/08/06 04:30:12.000    652232.9808   3579838.1666   5220896.9331   5  13   3.2391   5.8297   7.0603  -1.2050   5.1783  -0.8750   0.00    0.0
2020/08/06 04:30:22.000    652232.9437   3579838.3081   5220896.9909   5  13   3.2392   5.8328   7.0552  -1.2025   5.1778  -0.8634   0.00    0.0
2020/08/06 04:30:32.000    652232.9406   3579838.4584   5220897.1413   5  13   3.2393   5.8358   7.0500  -1.2001   5.1773  -0.8517   0.00    0.0
2020/08/06 04:30:42.000    652233.0204   3579838.3940   5220897.2342   5  13   3.2394   5.8388   7.0449  -1.1976   5.1768  -0.8398   0.00    0.0
2020/08/06 04:30:52.000    652233.0741   3579838.4323   5220897.2880   5  13   3.2395   5.8418   7.0396  -1.1951   5.1762  -0.8278   0.00    0.0
2020/08/06 04:31:02.000    652233.0643   3579838.4389   5220897.3526   5  13   3.2395   5.8447   7.0344  -1.1926   5.1755  -0.8157   0.00    0.0
2020/08/06 04:31:12.000    652233.0570   3579838.5470   5220897.5170   5  13   3.2396   5.8476   7.0291  -1.1901   5.1748  -0.8034   0.00    0.0
2020/08/06 04:31:22.000    652233.0565   3579838.6564   5220897.5734   5  13   3.2397   5.8505   7.0238  -1.1876   5.1740  -0.7910   0.00    0.0
2020/08/06 04:31:32.000    652233.0398   3579838.6347   5220897.4471   5  13   3.2398   5.8533   7.0184  -1.1851   5.1732  -0.7784   0.00    0.0
2020/08/06 04:31:42.000    652232.9868   3579838.5538   5220897.3151   5  13   3.2399   5.8561   7.0131  -1.1826   5.1724  -0.7656   0.00    0.0
2020/08/06 04:31:52.000    652232.9096   3579838.4720   5220897.2673   5  13   3.2400   5.8589   7.0077  -1.1801   5.1714  -0.7526   0.00    0.0
2020/08/06 04:32:02.000    652232.9092   3579838.4340   5220897.2413   5  13   3.2401   5.8616   7.0022  -1.1776   5.1705  -0.7395   0.00    0.0
2020/08/06 04:32:12.000    652232.9049   3579838.3252   5220897.0800   5  12   3.3739   5.9992   7.4543  -0.4381   5.4750   1.3747   0.00    0.0
2020/08/06 04:32:22.000    652232.9867   3579838.2911   5220897.1364   5  12   3.3741   6.0025   7.4501  -0.4267   5.4751   1.3834   0.00    0.0
2020/08/06 04:32:32.000    652232.9896   3579838.2586   5220897.2270   5  12   3.3744   6.0058   7.4459  -0.4150   5.4752   1.3919   0.00    0.0
2020/08/06 04:32:42.000    652232.9878   3579838.2159   5220897.2290   5  12   3.3747   6.0090   7.4417  -0.4030   5.4752   1.4003   0.00    0.0
2020/08/06 04:32:52.000    652232.9343   3579838.1927   5220897.3165   5  12   3.3749   6.0122   7.4374  -0.3908   5.4752   1.4087   0.00    0.0
2020/08/06 04:33:02.000    652232.9468   3579838.2040   5220897.4013   5  12   3.3752   6.0154   7.4331  -0.3782   5.4751   1.4170   0.00    0.0
2020/08/06 04:33:12.000    652232.9438   3579838.2948   5220897.5233   5  12   3.3755   6.0185   7.4287  -0.3652   5.4749   1.4252   0.00    0.0
2020/08/06 04:33:22.000    652232.9008   3579838.4357   5220897.7674   5  13   3.3722   5.9450   6.7082  -0.5214   5.1890   1.2498   0.00    0.0
2020/08/06 04:33:32.000    652232.7963   3579838.5349   5220897.7955   5  13   3.3725   5.9489   6.7081  -0.5122   5.1912   1.2585   0.00    0.0
2020/08/06 04:33:42.000    652232.7426   3579838.5136   5220897.7704   5  13   3.3727   5.9528   6.7080  -0.5029   5.1934   1.2670   0.00    0.0
2020/08/06 04:33:52.000    652232.7596   3579838.4972   5220897.7370   5  13   3.3729   5.9566   6.7080  -0.4934   5.1955   1.2754   0.00    0.0
2020/08/06 04:34:02.000    652232.7694   3579838.5327   5220897.7556   5  13   3.3732   5.9605   6.7079  -0.4838   5.1976   1.2836   0.00    0.0
2020/08/06 04:34:12.000    652232.6967   3579838.6358   5220897.7447   5  13   3.3735   5.9642   6.7078  -0.4740   5.1996   1.2919   0.00    0.0
2020/08/06 04:34:22.000    652232.7300   3579838.5982   5220897.6238   5  13   3.3737   5.9680   6.7076  -0.4639   5.2015   1.3000   0.00    0.0
2020/08/06 04:34:32.000    652232.7062   3579838.5827   5220897.5686   5  13   3.3740   5.9717   6.7074  -0.4537   5.2034   1.3080   0.00    0.0
2020/08/06 04:34:42.000    652232.7056   3579838.5713   5220897.6163   5  13   3.3742   5.9754   6.7071  -0.4433   5.2053   1.3160   0.00    0.0
2020/08/06 04:34:52.000    652232.6789   3579838.5373   5220897.5810   5  13   3.3745   5.9790   6.7068  -0.4327   5.2071   1.3239   0.00    0.0
2020/08/06 04:35:02.000    652232.6649   3579838.4581   5220897.6437   5  13   3.3747   5.9826   6.7065  -0.4218   5.2088   1.3318   0.00    0.0
2020/08/06 04:35:12.000    652232.6521   3579838.5094   5220897.8033   5  13   3.3750   5.9861   6.7061  -0.4107   5.2105   1.3396   0.00    0.0
2020/08/06 04:35:22.000    652232.6491   3579838.5297   5220897.8441   5  13   3.3753   5.9896   6.7057  -0.3993   5.2121   1.3473   0.00    0.0
2020/08/06 04:35:32.000    652232.6218   3579838.6139   5220897.9218   5  13   3.3755   5.9931   6.7053  -0.3876   5.2136   1.3549   0.00    0.0
2020/08/06 04:35:42.000    652232.6301   3579838.7738   5220897.9210   5  13   3.3758   5.9965   6.7048  -0.3756   5.2151   1.3625   0.00    0.0
2020/08/06 04:35:52.000    652232.5815   3579838.8906   5220897.9784   5  13   3.3760   5.9999   6.7042  -0.3632   5.2166   1.3700   0.00    0.0
2020/08/06 04:36:02.000    652232.5735   3579838.8883   5220897.9932   5  13   3.3763   6.0033   6.7036  -0.3505   5.2180   1.3774   0.00    0.0
2020/08/06 04:36:12.000    652232.6087   3579838.7980   5220897.9845   5  13   3.3766   6.0066   6.7030  -0.3373   5.2193   1.3848   0.00    0.0
2020/08/06 04:36:22.000    652232.6704   3579838.7348   5220898.0099   5  13   3.3769   6.0099   6.7024  -0.3236   5.2206   1.3921   0.00    0.0
2020/08/06 04:36:32.000    652232.7072   3579838.6562   5220898.0069   5  13   3.3771   6.0131   6.7017  -0.3094   5.2218   1.3993   0.00    0.0
2020/08/06 04:36:42.000    652232.7233   3579838.5776   5220898.0534   5  13   3.3774   6.0163   6.7009  -0.2945   5.2230   1.4065   0.00    0.0
2020/08/06 04:36:52.000    652232.7507   3579838.5397   5220898.0498   5  13   3.3777   6.0195   6.7001  -0.2789   5.2241   1.4136   0.00    0.0
2020/08/06 04:37:02.000    652232.7457   3579838.5059   5220898.0562   5  13   3.3779   6.0226   6.6993  -0.2625   5.2251   1.4207   0.00    0.0
2020/08/06 04:37:12.000    652232.7682   3579838.4511   5220897.9466   5  13   3.3782   6.0257   6.6984  -0.2450   5.2261   1.4277   0.00    0.0
2020/08/06 04:37:22.000    652232.7985   3579838.4299   5220898.0316   5  13   3.3785   6.0288   6.6975  -0.2263   5.2271   1.4346   0.00    0.0
2020/08/06 04:37:32.000    652232.8262   3579838.3783   5220898.0349   5  13   3.3788   6.0318   6.6966  -0.2060   5.2280   1.4415   0.00    0.0
2020/08/06 04:37:42.000    652232.8249   3579838.3800   5220897.9908   5  13   3.3790   6.0347   6.6956  -0.1836   5.2288   1.4483   0.00    0.0
2020/08/06 04:37:52.000    652232.8970   3579838.3928   5220897.9307   5  13   3.3793   6.0377   6.6946  -0.1581   5.2296   1.4550   0.00    0.0
2020/08/06 04:38:02.000    652232.8291   3579838.3593   5220897.9148   5  13   3.3796   6.0406   6.6936  -0.1279   5.2303   1.4617   0.00    0.0
2020/08/06 04:38:12.000    652233.2557   3579838.1006   5220894.6909   5  12   3.5145   6.0618   9.4548  -0.6797   5.5237  -2.0685   0.00    0.0
2020/08/06 04:38:22.000    652233.2845   3579838.1529   5220894.5810   5  12   3.5136   6.0654   9.4638  -0.6789   5.5309  -2.0602   0.00    0.0
2020/08/06 04:38:32.000    652232.8733   3579838.5551   5220895.8804   5  14   3.0394   5.3620   7.5945   1.9200   4.1279   2.3991   0.00    0.0
2020/08/06 04:38:42.000    652233.2322   3579838.4126   5220894.9062   5  13   3.3805   5.4810   8.9187   1.4242   4.7258  -1.0549   0.00    0.0
2020/08/06 04:38:52.000    652233.2087   3579838.4379   5220894.9698   5  13   3.3799   5.4844   8.9296   1.4240   4.7349  -1.0416   0.00    0.0
2020/08/06 04:39:02.000    652233.1597   3579838.4742   5220895.0197   5  13   3.3793   5.4879   8.9404   1.4239   4.7438  -1.0281   0.00    0.0
2020/08/06 04:39:12.000    652233.1461   3579838.5583   5220895.1169   5  13   3.3786   5.4913   8.9511   1.4237   4.7528  -1.0143   0.00    0.0
2020/08/06 04:39:22.000    652233.4047   3579838.3471   5220894.3212   5  14   3.0394   5.3773   7.6680   1.9216   4.1752   2.4160   0.00    0.0
2020/08/06 04:39:32.000    652233.0841   3579838.5126   5220895.1983   5  13   3.3773   5.4982   8.9722   1.4235   4.7705  -0.9858   0.00    0.0
2020/08/06 04:39:42.000    652233.0674   3579838.4144   5220895.0832   5  13   3.3767   5.5017   8.9826   1.4234   4.7792  -0.9712   0.00    0.0
2020/08/06 04:39:52.000    652232.9924   3579838.4174   5220894.9347   5  13   3.3761   5.5051   8.9930   1.4234   4.7879  -0.9563   0.00    0.0
2020/08/06 04:40:02.000    652232.9487   3579838.4748   5220894.8285   5  13   3.3755   5.5085   9.0032   1.4233   4.7966  -0.9410   0.00    0.0
2020/08/06 04:40:12.000    652232.9257   3579838.5686   5220894.8595   5  13   3.3748   5.5119   9.0134   1.4233   4.8052  -0.9254   0.00    0.0
2020/08/06 04:40:22.000    652232.9528   3579838.6126   5220894.8781   5  13   3.3742   5.5153   9.0235   1.4233   4.8137  -0.9095   0.00    0.0
2020/08/06 04:40:32.000    652232.9720   3579838.5986   5220894.8345   5  13   3.3736   5.5187   9.0335   1.4233   4.8222  -0.8932   0.00    0.0
2020/08/06 04:40:42.000    652232.9733   3579838.6162   5220894.9118   5  13   3.3730   5.5220   9.0434   1.4233   4.8306  -0.8765   0.00    0.0
2020/08/06 04:40:52.000    652233.3860   3579838.3344   5220893.7285   5  14   3.0393   5.4051   7.7992   1.9240   4.2596   2.4452   0.00    0.0
2020/08/06 04:41:02.000    652233.0485   3579838.7289   5220895.0126   5  13   3.3717   5.5287   9.0629   1.4234   4.8473  -0.8419   0.00    0.0
2020/08/06 04:41:12.000    652233.0881   3579838.6758   5220895.0042   5  13   3.3711   5.5321   9.0725   1.4235   4.8556  -0.8239   0.00    0.0
2020/08/06 04:41:22.000    652233.1618   3579838.6492   5220894.9336   5  13   3.3705   5.5354   9.0820   1.4236   4.8637  -0.8055   0.00    0.0
2020/08/06 04:41:32.000    652233.1597   3579838.4144   5220894.8565   5  13   3.3700   5.5395   9.0921   1.4226   4.8729  -0.7889   0.00    0.0
2020/08/06 04:41:42.000    652233.2089   3579838.1985   5220894.4310   5  14   3.0392   5.4212   7.8715   1.9246   4.3066   2.4606   0.00    0.0
2020/08/06 04:41:52.000    652233.1207   3579838.1569   5220894.4495   5  14   3.0392   5.4243   7.8858   1.9248   4.3159   2.4637   0.00    0.0
2020/08/06 04:42:02.000    652233.0278   3579838.1180   5220894.5375   5  14   3.0392   5.4274   7.9001   1.9249   4.3251   2.4667   0.00    0.0
2020/08/06 04:42:12.000    652232.9491   3579838.1113   5220894.6647   5  14   3.0392   5.4306   7.9143   1.9250   4.3343   2.4697   0.00    0.0
2020/08/06 04:42:22.000    652232.8722   3579838.1803   5220894.8100   5  14   3.0391   5.4337   7.9285   1.9251   4.3435   2.4727   0.00    0.0
2020/08/06 04:42:32.000    652232.8021   3579838.3318   5220895.1847   5  14   3.0391   5.4368   7.9427   1.9252   4.3527   2.4756   0.00    0.0
2020/08/06 04:42:42.000    652232.7805   3579838.3116   5220895.2818   5  14   3.0391   5.4399   7.9568   1.9253   4.3618   2.4786   0.00    0.0
2020/08/06 04:42:52.000    652232.7306   3579838.3978   5220895.5337   5  14   3.0391   5.4431   7.9709   1.9254   4.3710   2.4815   0.00    0.0
2020/08/06 04:43:02.000    652232.9332   3579838.2020   5220894.9689   5  13   3.3647   5.5692   9.1726   1.4235   4.9437  -0.5894   0.00    0.0
2020/08/06 04:43:12.000    652232.8900   3579838.1358   5220894.9358   5  13   3.3642   5.5724   9.1810   1.4237   4.9512  -0.5623   0.00    0.0
2020/08/06 04:43:22.000    652232.6489   3579838.2550   5220895.5892   5  14   3.0390   5.4524   8.0128   1.9256   4.3982   2.4901   0.00    0.0
2020/08/06 04:43:32.000    652232.6385   3579838.2195   5220895.6517   5  14   3.0389   5.4555   8.0267   1.9256   4.4072   2.4929   0.00    0.0
2020/08/06 04:43:42.000    652232.6320   3579838.2036   5220895.8051   5  14   3.0389   5.4587   8.0406   1.9256   4.4162   2.4957   0.00    0.0
2020/08/06 04:43:52.000    652232.6681   3579838.2000   5220895.6950   5  14   3.0389   5.4618   8.0544   1.9257   4.4251   2.4984   0.00    0.0
2020/08/06 04:44:02.000    652232.6738   3579838.2361   5220895.6306   5  14   3.0388   5.4649   8.0681   1.9256   4.4341   2.5012   0.00    0.0
2020/08/06 04:44:12.000    652232.6622   3579838.2375   5220895.6669   5  14   3.0388   5.4680   8.0818   1.9256   4.4430   2.5039   0.00    0.0
2020/08/06 04:44:22.000    652232.7903   3579838.1455   5220895.2382   5  13   3.3602   5.5945   9.2365   1.4253   5.0017  -0.3089   0.00    0.0
2020/08/06 04:44:32.000    652232.7761   3579838.1851   5220895.2004   5  13   3.3597   5.5976   9.2440   1.4256   5.0086  -0.2519   0.00    0.0
2020/08/06 04:44:42.000    652232.7340   3579838.2320   5220895.3448   5  14   3.0387   5.4773   8.1225   1.9255   4.4694   2.5118   0.00    0.0
2020/08/06 04:44:52.000    652232.8194   3579838.0907   5220895.1754   5  14   3.0386   5.4803   8.1359   1.9254   4.4782   2.5144   0.00    0.0
2020/08/06 04:45:02.000    652232.8501   3579837.9715   5220895.2336   5  13   3.3580   5.6068   9.2656   1.4266   5.0288   0.1812   0.00    0.0
2020/08/06 04:45:12.000    652232.8589   3579837.9320   5220895.2945   5  13   3.3575   5.6098   9.2725   1.4269   5.0354   0.2551   0.00    0.0
2020/08/06 04:45:22.000    652232.9140   3579837.9005   5220895.3178   5  13   3.3569   5.6128   9.2794   1.4272   5.0419   0.3121   0.00    0.0
2020/08/06 04:45:32.000    652232.9221   3579837.8184   5220895.1349   5  13   3.3564   5.6158   9.2861   1.4276   5.0484   0.3603   0.00    0.0
2020/08/06 04:45:42.000    652232.9510   3579837.8224   5220895.0912   5  13   3.3558   5.6187   9.2927   1.4280   5.0547   0.4029   0.00    0.0
2020/08/06 04:45:52.000    652232.9237   3579837.8271   5220895.0626   5  13   3.3553   5.6216   9.2991   1.4284   5.0610   0.4414   0.00    0.0
2020/08/06 04:46:02.000    652232.8495   3579837.8807   5220895.1802   5  13   3.3548   5.6246   9.3055   1.4288   5.0672   0.4769   0.00    0.0
2020/08/06 04:46:12.000    652232.8126   3579837.9049   5220895.2380   5  13   3.3543   5.6275   9.3117   1.4292   5.0733   0.5100   0.00    0.0
2020/08/06 04:46:22.000    652232.8235   3579837.9344   5220895.2629   5  13   3.3537   5.6303   9.3178   1.4296   5.0793   0.5412   0.00    0.0
2020/08/06 04:46:32.000    652232.8374   3579838.0540   5220895.2755   5  13   3.3532   5.6332   9.3237   1.4300   5.0852   0.5706   0.00    0.0
2020/08/06 04:46:42.000    652232.8584   3579838.0491   5220895.1339   5  13   3.3527   5.6360   9.3296   1.4305   5.0910   0.5987   0.00    0.0
2020/08/06 04:46:52.000    652232.8325   3579838.1051   5220895.2234   5  14   3.0379   5.5170   8.2922   1.9234   4.5802   2.5432   0.00    0.0
2020/08/06 04:47:02.000    652232.6929   3579838.0831   5220895.3013   5  14   3.0378   5.5200   8.3047   1.9232   4.5884   2.5454   0.00    0.0
2020/08/06 04:47:12.000    652232.6660   3579838.1095   5220895.4037   5  14   3.0378   5.5230   8.3172   1.9229   4.5966   2.5476   0.00    0.0
2020/08/06 04:47:22.000    652232.5915   3579838.1036   5220895.6556   5  14   3.0377   5.5260   8.3296   1.9226   4.6047   2.5497   0.00    0.0
2020/08/06 04:47:32.000    652232.6040   3579838.1192   5220895.6618   5  14   3.0376   5.5289   8.3419   1.9223   4.6128   2.5518   0.00    0.0
2020/08/06 04:47:42.000    652232.6061   3579838.0980   5220895.5411   5  14   3.0375   5.5319   8.3541   1.9219   4.6208   2.5538   0.00    0.0
2020/08/06 04:47:52.000    652232.6089   3579838.1574   5220895.6261   5  14   3.0374   5.5349   8.3662   1.9216   4.6288   2.5559   0.00    0.0
2020/08/06 04:48:02.000    652232.5868   3579838.3025   5220895.8022   5  14   3.0373   5.5378   8.3782   1.9212   4.6367   2.5578   0.00    0.0
2020/08/06 04:48:12.000    652232.6090   3579838.2430   5220895.9011   5  14   3.0373   5.5408   8.3902   1.9208   4.6446   2.5598   0.00    0.0
2020/08/06 04:48:22.000    652232.6660   3579838.2693   5220895.9532   5  14   3.0372   5.5437   8.4020   1.9204   4.6524   2.5617   0.00    0.0
2020/08/06 04:48:32.000    652232.6044   3579838.1874   5220895.9404   5  14   3.0371   5.5466   8.4138   1.9200   4.6601   2.5635   0.00    0.0
2020/08/06 04:48:42.000    652232.5496   3579838.1905   5220895.8009   5  14   3.0370   5.5496   8.4254   1.9195   4.6678   2.5654   0.00    0.0
2020/08/06 04:48:52.000    652232.5891   3579838.2605   5220895.8243   5  14   3.0369   5.5525   8.4369   1.9191   4.6755   2.5671   0.00    0.0
2020/08/06 04:49:02.000    652232.6413   3579838.1837   5220895.7794   5  14   3.0368   5.5554   8.4484   1.9186   4.6830   2.5689   0.00    0.0
2020/08/06 04:49:12.000    652232.7045   3579838.0742   5220895.7083   5  14   3.0367   5.5582   8.4597   1.9181   4.6906   2.5706   0.00    0.0
2020/08/06 04:49:22.000    652232.7696   3579837.8914   5220895.5120   5  14   3.0366   5.5611   8.4710   1.9176   4.6980   2.5723   0.00    0.0
2020/08/06 04:49:32.000    652232.8311   3579837.7823   5220895.1864   5  14   3.0365   5.5640   8.4821   1.9170   4.7054   2.5739   0.00    0.0
2020/08/06 04:49:42.000    652232.8525   3579837.7369   5220894.9495   5  14   3.0363   5.5668   8.4932   1.9165   4.7128   2.5755   0.00    0.0
2020/08/06 04:49:52.000    652232.9188   3579837.6424   5220894.8251   5  14   3.0362   5.5696   8.5041   1.9159   4.7200   2.5770   0.00    0.0
2020/08/06 04:50:02.000    652232.9142   3579837.6736   5220894.9049   5  14   3.0361   5.5725   8.5149   1.9153   4.7273   2.5785   0.00    0.0
2020/08/06 04:50:12.000    652232.9145   3579837.7656   5220894.8923   5  14   3.0360   5.5753   8.5256   1.9147   4.7344   2.5800   0.00    0.0
2020/08/06 04:50:22.000    652232.9965   3579837.7786   5220894.8520   5  14   3.0359   5.5781   8.5362   1.9140   4.7415   2.5814   0.00    0.0
2020/08/06 04:50:32.000    652233.0848   3579837.7916   5220894.7090   5  14   3.0357   5.5808   8.5467   1.9133   4.7485   2.5827   0.00    0.0
2020/08/06 04:50:42.000    652233.0238   3579837.7451   5220894.7090   5  14   3.0356   5.5836   8.5570   1.9127   4.7555   2.5841   0.00    0.0
2020/08/06 04:50:52.000    652233.0032   3579837.6596   5220894.6568   5  14   3.0355   5.5864   8.5672   1.9120   4.7623   2.5854   0.00    0.0
2020/08/06 04:51:02.000    652232.9463   3579837.6165   5220894.6685   5  14   3.0354   5.5891   8.5774   1.9112   4.7692   2.5866   0.00    0.0
2020/08/06 04:51:12.000    652232.9716   3579837.7000   5220894.7436   5  14   3.0352   5.5918   8.5874   1.9105   4.7759   2.5878   0.00    0.0
2020/08/06 04:51:22.000    652232.9762   3579837.8205   5220894.8819   5  14   3.0351   5.5945   8.5972   1.9097   4.7826   2.5889   0.00    0.0
2020/08/06 04:51:32.000    652232.9365   3579837.7184   5220894.9141   5  14   3.0349   5.5972   8.6070   1.9089   4.7892   2.5900   0.00    0.0
2020/08/06 04:51:42.000    652232.9603   3579837.8128   5220895.0605   5  14   3.0348   5.5999   8.6166   1.9081   4.7957   2.5911   0.00    0.0
2020/08/06 04:51:52.000    652232.8563   3579837.7872   5220895.1785   5  14   3.0347   5.6026   8.6261   1.9072   4.8022   2.5921   0.00    0.0
2020/08/06 04:52:02.000    652232.8017   3579837.7460   5220895.0788   5  14   3.0345   5.6052   8.6355   1.9064   4.8086   2.5931   0.00    0.0
2020/08/06 04:52:12.000    652232.7988   3579837.7306   5220894.9461   5  14   3.0344   5.6078   8.6448   1.9055   4.8149   2.5940   0.00    0.0
2020/08/06 04:52:22.000    652232.8320   3579837.6553   5220894.7102   5  14   3.0342   5.6105   8.6539   1.9046   4.8211   2.5949   0.00    0.0
2020/08/06 04:52:32.000    652232.7754   3579837.6860   5220894.8044   5  14   3.0340   5.6131   8.6629   1.9037   4.8273   2.5957   0.00    0.0
2020/08/06 04:52:42.000    652232.8158   3579837.6869   5220894.8595   5  13   3.3362   5.7213   9.4451   1.4495   5.2401   1.2437   0.00    0.0
2020/08/06 04:52:52.000    652232.7979   3579837.6080   5220894.8589   5  13   3.3359   5.7232   9.4456   1.4501   5.2424   1.2567   0.00    0.0
2020/08/06 04:53:02.000    652232.8468   3579837.6021   5220894.9071   5  13   3.3355   5.7250   9.4460   1.4506   5.2447   1.2694   0.00    0.0
2020/08/06 04:53:12.000    652232.8575   3579837.6116   5220894.8897   5  14   3.0334   5.6233   8.6975   1.8997   4.8511   2.5985   0.00    0.0
2020/08/06 04:53:22.000    652232.8523   3579837.6358   5220894.9696   5  14   3.0332   5.6258   8.7058   1.8986   4.8569   2.5991   0.00    0.0
2020/08/06 04:53:32.000    652232.9235   3579837.7756   5220895.0580   5  13   3.3343   5.7304   9.4461   1.4522   5.2509   1.3069   0.00    0.0
2020/08/06 04:53:42.000    652232.9170   3579837.8759   5220895.1137   5  13   3.3339   5.7322   9.4459   1.4527   5.2528   1.3191   0.00    0.0
2020/08/06 04:53:52.000    652232.8669   3579837.9562   5220895.1351   5  14   3.0327   5.6332   8.7298   1.8953   4.8737   2.6006   0.00    0.0
2020/08/06 04:54:02.000    652232.8405   3579838.0222   5220895.0523   5  14   3.0325   5.6356   8.7376   1.8942   4.8791   2.6009   0.00    0.0
2020/08/06 04:54:12.000    652232.7943   3579838.1409   5220895.0948   5  14   3.0323   5.6380   8.7452   1.8930   4.8845   2.6013   0.00    0.0
2020/08/06 04:54:22.000    652232.7728   3579838.1752   5220895.1236   5  14   3.0322   5.6404   8.7526   1.8918   4.8897   2.6016   0.00    0.0
2020/08/06 04:54:32.000    652232.7633   3579838.2737   5220895.2214   5  14   3.0320   5.6428   8.7599   1.8906   4.8949   2.6018   0.00    0.0
2020/08/06 04:54:42.000    652232.6773   3579838.3340   5220895.3850   5  14   3.0318   5.6452   8.7670   1.8893   4.9000   2.6020   0.00    0.0
2020/08/06 04:54:52.000    652232.6266   3579838.3476   5220895.4818   5  14   3.0316   5.6475   8.7741   1.8880   4.9050   2.6021   0.00    0.0
2020/08/06 04:55:02.000    652232.6285   3579838.3104   5220895.5279   5  14   3.0314   5.6498   8.7809   1.8867   4.9099   2.6022   0.00    0.0
2020/08/06 04:55:12.000    652232.7026   3579838.2743   5220895.3965   5  14   3.0312   5.6521   8.7876   1.8854   4.9148   2.6022   0.00    0.0
2020/08/06 04:55:22.000    652232.6568   3579838.1952   5220895.3691   5  14   3.0310   5.6544   8.7941   1.8840   4.9195   2.6022   0.00    0.0
2020/08/06 04:55:32.000    652232.5918   3579838.0840   5220895.3671   5  14   3.0308   5.6566   8.8005   1.8826   4.9241   2.6021   0.00    0.0
2020/08/06 04:55:42.000    652232.5898   3579837.9911   5220895.4239   5  14   3.0306   5.6589   8.8068   1.8812   4.9287   2.6020   0.00    0.0
2020/08/06 04:55:52.000    652232.6432   3579837.9479   5220895.3462   5  14   3.0304   5.6611   8.8129   1.8798   4.9332   2.6018   0.00    0.0
2020/08/06 04:56:02.000    652232.6246   3579837.8767   5220895.3586   5  14   3.0302   5.6633   8.8188   1.8783   4.9376   2.6016   0.00    0.0
2020/08/06 04:56:12.000    652232.6665   3579837.6937   5220895.2938   5  14   3.0299   5.6654   8.8246   1.8768   4.9419   2.6013   0.00    0.0
2020/08/06 04:56:22.000    652232.6448   3579837.5636   5220895.2273   5  14   3.0297   5.6676   8.8302   1.8753   4.9461   2.6010   0.00    0.0
2020/08/06 04:56:32.000    652232.6148   3579837.5872   5220895.3078   5  14   3.0295   5.6697   8.8356   1.8738   4.9502   2.6006   0.00    0.0
2020/08/06 04:56:42.000    652232.6523   3579837.5983   5220895.3217   5  14   3.0293   5.6718   8.8409   1.8722   4.9542   2.6002   0.00    0.0
2020/08/06 04:56:52.000    652232.6208   3579837.5778   5220895.2688   5  13   3.3273   5.7598   9.4134   1.4609   5.2700   1.5253   0.00    0.0
2020/08/06 04:57:02.000    652232.5701   3579837.5301   5220895.1083   5  13   3.3270   5.7610   9.4103   1.4613   5.2700   1.5350   0.00    0.0
2020/08/06 04:57:12.000    652232.5833   3579837.4649   5220895.0130   5  13   3.3267   5.7622   9.4070   1.4616   5.2699   1.5446   0.00    0.0
2020/08/06 04:57:22.000    652232.6253   3579837.4407   5220894.8524   5  14   3.0284   5.6800   8.8605   1.8656   4.9693   2.5979   0.00    0.0
2020/08/06 04:57:32.000    652232.6352   3579837.4883   5220894.9224   5  14   3.0281   5.6820   8.8649   1.8639   4.9728   2.5972   0.00    0.0
2020/08/06 04:57:42.000    652232.6891   3579837.5377   5220895.0324   5  14   3.0279   5.6839   8.8693   1.8622   4.9763   2.5964   0.00    0.0
2020/08/06 04:57:52.000    652232.5969   3579837.4620   5220895.1196   5  14   3.0277   5.6859   8.8734   1.8604   4.9796   2.5956   0.00    0.0
2020/08/06 04:58:02.000    652232.5969   3579837.4585   5220895.0786   5  14   3.0274   5.6878   8.8774   1.8586   4.9829   2.5948   0.00    0.0
2020/08/06 04:58:12.000    652232.5538   3579837.4173   5220895.1013   5  14   3.0272   5.6897   8.8812   1.8568   4.9861   2.5938   0.00    0.0
2020/08/06 04:58:22.000    652232.5051   3579837.3395   5220895.1393   5  14   3.0270   5.6916   8.8849   1.8549   4.9891   2.5929   0.00    0.0
2020/08/06 04:58:32.000    652232.4612   3579837.2853   5220895.1854   5  14   3.0267   5.6934   8.8884   1.8531   4.9921   2.5919   0.00    0.0
2020/08/06 04:58:42.000    652232.5672   3579837.1989   5220895.1401   5  14   3.0265   5.6952   8.8917   1.8512   4.9949   2.5908   0.00    0.0
2020/08/06 04:58:52.000    652232.5823   3579837.0817   5220895.1807   5  14   3.0262   5.6970   8.8948   1.8492   4.9977   2.5897   0.00    0.0
2020/08/06 04:59:02.000    652232.6686   3579836.9273   5220895.1479   5  14   3.0260   5.6988   8.8978   1.8473   5.0004   2.5885   0.00    0.0
2020/08/06 04:59:12.000    652232.6991   3579836.9814   5220895.2308   5  14   3.0257   5.7006   8.9006   1.8453   5.0030   2.5872   0.00    0.0
2020/08/06 04:59:22.000    652232.7160   3579837.1013   5220895.2697   5  14   3.0254   5.7023   8.9033   1.8433   5.0054   2.5860   0.00    0.0
2020/08/06 04:59:32.000    652232.6450   3579837.0320   5220895.3367   5  14   3.0252   5.7040   8.9057   1.8412   5.0078   2.5846   0.00    0.0
2020/08/06 04:59:42.000    652232.6492   3579837.0884   5220895.3468   5  14   3.0249   5.7057   8.9081   1.8391   5.0101   2.5832   0.00    0.0
2020/08/06 04:59:52.000    652232.6190   3579837.2508   5220895.3396   5  14   3.0247   5.7073   8.9102   1.8370   5.0123   2.5818   0.00    0.0
2020/08/06 05:00:02.000    652233.4522   3579837.1947   5220895.6811   5  14   3.0244   5.7089   8.9122   1.8349   5.0143   2.5803   0.00    0.0
2020/08/06 05:00:12.000    652233.4139   3579837.1898   5220895.6359   5  14   3.0241   5.7106   8.9140   1.8327   5.0163   2.5787   0.00    0.0
2020/08/06 05:00:22.000    652233.3581   3579837.3599   5220895.7201   5  14   3.0239   5.7121   8.9156   1.8305   5.0182   2.5771   0.00    0.0
2020/08/06 05:00:32.000    652233.4322   3579837.4010   5220895.7711   5  14   3.0236   5.7137   8.9170   1.8283   5.0200   2.5755   0.00    0.0
2020/08/06 05:00:42.000    652233.4830   3579837.5269   5220895.8522   5  14   3.0233   5.7152   8.9183   1.8261   5.0217   2.5738   0.00    0.0
2020/08/06 05:00:52.000    652233.5790   3579837.5696   5220895.7741   5  14   3.0231   5.7167   8.9194   1.8238   5.0232   2.5720   0.00    0.0
2020/08/06 05:01:02.000    652233.5524   3579837.4924   5220895.8159   5  14   3.0228   5.7182   8.9204   1.8215   5.0247   2.5702   0.00    0.0
2020/08/06 05:01:12.000    652233.4774   3579837.5976   5220895.9093   5  14   3.0225   5.7197   8.9212   1.8192   5.0261   2.5683   0.00    0.0
2020/08/06 05:01:22.000    652233.4492   3579837.6320   5220895.9408   5  14   3.0222   5.7211   8.9218   1.8168   5.0274   2.5664   0.00    0.0
2020/08/06 05:01:32.000    652233.4710   3579837.6658   5220895.9375   5  14   3.0220   5.7225   8.9222   1.8144   5.0286   2.5645   0.00    0.0
2020/08/06 05:01:42.000    652234.1694   3579837.4784   5220899.7376   5  15   2.8825   5.7238   7.0888   1.8224   5.0521   1.2863   0.00    0.0
2020/08/06 05:01:52.000    652234.1912   3579837.4216   5220899.7321   5  15   2.8824   5.7251   7.0951   1.8214   5.0562   1.2860   0.00    0.0
2020/08/06 05:02:02.000    652234.2276   3579837.5350   5220899.8064   5  15   2.8822   5.7264   7.1014   1.8204   5.0601   1.2857   0.00    0.0
2020/08/06 05:02:12.000    652234.1830   3579837.5505   5220899.8502   5  15   2.8821   5.7276   7.1076   1.8194   5.0640   1.2854   0.00    0.0
2020/08/06 05:02:22.000    652234.2097   3579837.6212   5220899.8534   5  15   2.8819   5.7289   7.1138   1.8184   5.0679   1.2851   0.00    0.0
2020/08/06 05:02:32.000    652234.2114   3579837.6915   5220899.8999   5  15   2.8818   5.7301   7.1199   1.8174   5.0717   1.2848   0.00    0.0
2020/08/06 05:02:42.000    652234.1850   3579837.6746   5220899.9945   5  15   2.8817   5.7312   7.1259   1.8164   5.0754   1.2845   0.00    0.0
2020/08/06 05:02:52.000    652234.1350   3579837.6995   5220899.9837   5  15   2.8815   5.7324   7.1318   1.8154   5.0790   1.2842   0.00    0.0
2020/08/06 05:03:02.000    652234.1506   3579837.8361   5220900.0103   5  15   2.8814   5.7335   7.1377   1.8143   5.0826   1.2839   0.00    0.0
2020/08/06 05:03:12.000    652234.1563   3579837.8240   5220899.8564   5  15   2.8813   5.7345   7.1436   1.8133   5.0861   1.2837   0.00    0.0
2020/08/06 05:03:22.000    652234.1936   3579837.8479   5220899.7482   5  15   2.8811   5.7356   7.1494   1.8122   5.0895   1.2835   0.00    0.0
2020/08/06 05:03:32.000    652234.1677   3579837.8593   5220899.7155   5  15   2.8810   5.7366   7.1551   1.8112   5.0929   1.2832   0.00    0.0
2020/08/06 05:03:42.000    652234.1357   3579837.9332   5220899.7953   5  15   2.8809   5.7375   7.1608   1.8101   5.0962   1.2830   0.00    0.0
2020/08/06 05:03:52.000    652234.1820   3579837.9653   5220899.7355   5  15   2.8808   5.7385   7.1664   1.8091   5.0994   1.2827   0.00    0.0
2020/08/06 05:04:02.000    652234.1206   3579837.9313   5220899.7271   5  15   2.8806   5.7394   7.1719   1.8080   5.1026   1.2825   0.00    0.0
2020/08/06 05:04:12.000    652234.1627   3579837.7357   5220899.5734   5  15   2.8805   5.7403   7.1773   1.8070   5.1057   1.2822   0.00    0.0
2020/08/06 05:04:22.000    652234.0819   3579837.6309   5220899.5929   5  15   2.8804   5.7411   7.1827   1.8059   5.1087   1.2820   0.00    0.0
2020/08/06 05:04:32.000    652234.0841   3579837.5321   5220899.4829   5  15   2.8803   5.7419   7.1880   1.8048   5.1116   1.2817   0.00    0.0
2020/08/06 05:04:42.000    652234.1778   3579837.4453   5220899.4520   5  15   2.8802   5.7427   7.1932   1.8038   5.1145   1.2814   0.00    0.0
2020/08/06 05:04:52.000    652234.1771   3579837.4486   5220899.5950   5  15   2.8801   5.7434   7.1983   1.8027   5.1173   1.2811   0.00    0.0
2020/08/06 05:05:02.000    652234.1881   3579837.3752   5220899.7303   5  15   2.8800   5.7441   7.2033   1.8016   5.1200   1.2808   0.00    0.0
2020/08/06 05:05:12.000    652234.1832   3579837.2567   5220899.8373   5  15   2.8799   5.7448   7.2083   1.8005   5.1227   1.2805   0.00    0.0
2020/08/06 05:05:22.000    652234.4016   3579838.1175   5220900.4370   5  14   3.1950   7.9070   7.7074   3.2795   6.4047   2.3231   0.00    0.0
2020/08/06 05:05:32.000    652234.3702   3579837.9657   5220900.4355   5  14   3.1946   7.9178   7.7181   3.2815   6.4173   2.3277   0.00    0.0
2020/08/06 05:05:42.000    652234.3470   3579838.0116   5220900.4549   5  14   3.1942   7.9285   7.7286   3.2835   6.4299   2.3323   0.00    0.0
2020/08/06 05:05:52.000    652234.3750   3579838.0651   5220900.4740   5  14   3.1938   7.9392   7.7392   3.2855   6.4424   2.3369   0.00    0.0
2020/08/06 05:06:02.000    652234.3193   3579838.0878   5220900.4406   5  14   3.1935   7.9499   7.7496   3.2874   6.4548   2.3414   0.00    0.0
2020/08/06 05:06:12.000    652234.3045   3579838.1266   5220900.4365   5  14   3.1931   7.9606   7.7601   3.2894   6.4672   2.3460   0.00    0.0
2020/08/06 05:06:22.000    652234.2815   3579838.2545   5220900.5274   5  14   3.1927   7.9712   7.7704   3.2914   6.4795   2.3504   0.00    0.0
2020/08/06 05:06:32.000    652234.2964   3579838.3489   5220900.5836   5  14   3.1923   7.9818   7.7807   3.2933   6.4917   2.3549   0.00    0.0
2020/08/06 05:06:42.000    652234.2942   3579838.4678   5220900.7551   5  14   3.1920   7.9924   7.7909   3.2952   6.5039   2.3594   0.00    0.0
2020/08/06 05:06:52.000    652234.2962   3579838.6079   5220900.8859   5  14   3.1916   8.0029   7.8010   3.2971   6.5160   2.3638   0.00    0.0
2020/08/06 05:07:02.000    652234.3715   3579838.6746   5220900.8857   5  14   3.1912   8.0134   7.8111   3.2990   6.5280   2.3681   0.00    0.0
2020/08/06 05:07:12.000    652234.3514   3579838.6925   5220901.0040   5  14   3.1908   8.0239   7.8211   3.3009   6.5400   2.3725   0.00    0.0
2020/08/06 05:07:22.000    652234.3988   3579838.7049   5220901.0077   5  14   3.1905   8.0343   7.8310   3.3028   6.5519   2.3768   0.00    0.0
2020/08/06 05:07:32.000    652234.3780   3579838.7347   5220900.9810   5  14   3.1901   8.0447   7.8409   3.3046   6.5637   2.3811   0.00    0.0
2020/08/06 05:07:42.000    652234.3690   3579838.6995   5220900.8926   5  14   3.1897   8.0551   7.8507   3.3064   6.5755   2.3853   0.00    0.0
2020/08/06 05:07:52.000    652234.3685   3579838.7684   5220900.9939   5  14   3.1894   8.0654   7.8604   3.3082   6.5872   2.3896   0.00    0.0
2020/08/06 05:08:02.000    652234.3707   3579838.8170   5220901.0589   5  14   3.1890   8.0757   7.8700   3.3100   6.5988   2.3937   0.00    0.0
2020/08/06 05:08:12.000    652234.3977   3579839.0110   5220901.0439   5  14   3.1886   8.0859   7.8795   3.3118   6.6103   2.3979   0.00    0.0
2020/08/06 05:08:22.000    652234.3736   3579839.0970   5220900.9535   5  14   3.1883   8.0962   7.8890   3.3136   6.6218   2.4020   0.00    0.0
2020/08/06 05:08:32.000    652234.3532   3579839.0598   5220900.9523   5  14   3.1879   8.1063   7.8984   3.3153   6.6331   2.4061   0.00    0.0
2020/08/06 05:08:42.000    652234.3665   3579839.1066   5220900.8597   5  14   3.1875   8.1165   7.9077   3.3171   6.6444   2.4101   0.00    0.0
2020/08/06 05:08:52.000    652234.3117   3579839.1152   5220900.7703   5  14   3.1872   8.1265   7.9169   3.3188   6.6556   2.4142   0.00    0.0
2020/08/06 05:09:02.000    652234.3283   3579839.0692   5220900.7655   5  14   3.1868   8.1366   7.9261   3.3205   6.6668   2.4181   0.00    0.0
2020/08/06 05:09:12.000    652234.3471   3579838.9660   5220900.6440   5  14   3.1864   8.1466   7.9351   3.3221   6.6778   2.4221   0.00    0.0
2020/08/06 05:09:22.000    652234.3413   3579838.8909   5220900.5634   5  14   3.1861   8.1565   7.9441   3.3238   6.6888   2.4260   0.00    0.0
2020/08/06 05:09:32.000    652234.4084   3579838.8186   5220900.5004   5  14   3.1857   8.1664   7.9530   3.3254   6.6996   2.4298   0.00    0.0
2020/08/06 05:09:42.000    652234.3884   3579838.5813   5220900.4676   5  14   3.1853   8.1763   7.9617   3.3270   6.7104   2.4337   0.00    0.0
2020/08/06 05:09:52.000    652234.3914   3579838.4928   5220900.5393   5  14   3.1849   8.1861   7.9704   3.3286   6.7211   2.4375   0.00    0.0
2020/08/06 05:10:02.000    652234.3627   3579838.4720   5220900.6278   5  14   3.1846   8.1958   7.9790   3.3302   6.7317   2.4412   0.00    0.0
2020/08/06 05:10:12.000    652234.2934   3579838.5571   5220900.7983   5  14   3.1842   8.2055   7.9876   3.3317   6.7422   2.4449   0.00    0.0
2020/08/06 05:10:22.000    652234.2723   3579838.5631   5220900.8335   5  14   3.1838   8.2152   7.9960   3.3332   6.7527   2.4486   0.00    0.0
2020/08/06 05:10:32.000    652234.2158   3579838.4194   5220900.7778   5  14   3.1835   8.2247   8.0043   3.3347   6.7630   2.4522   0.00    0.0
2020/08/06 05:10:42.000    652234.2117   3579838.4107   5220900.8102   5  14   3.1831   8.2343   8.0125   3.3362   6.7732   2.4558   0.00    0.0
2020/08/06 05:10:52.000    652234.2339   3579838.4945   5220900.8390   5  14   3.1827   8.2438   8.0206   3.3377   6.7834   2.4594   0.00    0.0
2020/08/06 05:11:02.000    652234.2869   3579838.6257   5220900.8141   5  14   3.1824   8.2532   8.0287   3.3391   6.7934   2.4629   0.00    0.0
2020/08/06 05:11:12.000    652234.2452   3579838.6961   5220900.8427   5  14   3.1820   8.2625   8.0366   3.3405   6.8033   2.4664   0.00    0.0
2020/08/06 05:11:22.000    652234.1363   3579838.7461   5220900.9497   5  14   3.1816   8.2718   8.0444   3.3419   6.8132   2.4698   0.00    0.0
2020/08/06 05:11:32.000    652234.1130   3579838.7073   5220900.9543   5  14   3.1812   8.2811   8.0521   3.3432   6.8229   2.4732   0.00    0.0
2020/08/06 05:11:42.000    652234.0924   3579838.6764   5220900.9569   5  14   3.1809   8.2903   8.0597   3.3446   6.8325   2.4766   0.00    0.0
2020/08/06 05:11:52.000    652234.1498   3579838.6251   5220900.9292   5  14   3.1805   8.2994   8.0673   3.3459   6.8421   2.4799   0.00    0.0
2020/08/06 05:12:02.000    652234.1635   3579838.6106   5220900.8899   5  14   3.1801   8.3084   8.0747   3.3472   6.8515   2.4831   0.00    0.0
2020/08/06 05:12:12.000    652234.1483   3579838.6208   5220900.9324   5  14   3.1797   8.3174   8.0820   3.3484   6.8608   2.4864   0.00    0.0
2020/08/06 05:12:22.000    652234.1713   3579838.6108   5220900.8980   5  14   3.1794   8.3264   8.0892   3.3497   6.8700   2.4895   0.00    0.0
2020/08/06 05:12:32.000    652234.0667   3579838.6864   5220900.8674   5  14   3.1790   8.3352   8.0962   3.3509   6.8791   2.4927   0.00    0.0
2020/08/06 05:12:42.000    652234.1656   3579838.7113   5220900.7635   5  14   3.1786   8.3440   8.1032   3.3520   6.8881   2.4957   0.00    0.0
2020/08/06 05:12:52.000    652234.1592   3579838.6015   5220900.7154   5  14   3.1782   8.3527   8.1101   3.3532   6.8970   2.4988   0.00    0.0
2020/08/06 05:13:02.000    652234.1647   3579838.4421   5220900.6394   5  14   3.1778   8.3614   8.1168   3.3543   6.9058   2.5018   0.00    0.0
2020/08/06 05:13:12.000    652234.2129   3579838.4382   5220900.6461   5  14   3.1775   8.3700   8.1234   3.3554   6.9144   2.5047   0.00    0.0
2020/08/06 05:13:22.000    652234.2439   3579838.4147   5220900.6092   5  14   3.1771   8.3785   8.1300   3.3565   6.9230   2.5076   0.00    0.0
2020/08/06 05:13:32.000    652234.2689   3579838.4510   5220900.6031   5  14   3.1767   8.3869   8.1364   3.3575   6.9314   2.5105   0.00    0.0
2020/08/06 05:13:42.000    652234.3580   3579838.5335   5220900.5907   5  14   3.1763   8.3953   8.1426   3.3585   6.9397   2.5133   0.00    0.0
2020/08/06 05:13:52.000    652234.4058   3579838.6640   5220900.6454   5  14   3.1759   8.4036   8.1488   3.3595   6.9479   2.5161   0.00    0.0
2020/08/06 05:14:02.000    652234.3894   3579838.6529   5220900.5353   5  14   3.1755   8.4118   8.1548   3.3604   6.9560   2.5188   0.00    0.0
2020/08/06 05:14:12.000    652234.3293   3579838.5896   5220900.6199   5  14   3.1751   8.4200   8.1608   3.3614   6.9639   2.5215   0.00    0.0
2020/08/06 05:14:22.000    652234.2967   3579838.4576   5220900.6526   5  14   3.1747   8.4280   8.1666   3.3623   6.9718   2.5241   0.00    0.0
2020/08/06 05:14:32.000    652234.2462   3579838.0918   5220900.5210   5  14   3.1744   8.4360   8.1723   3.3631   6.9795   2.5267   0.00    0.0
2020/08/06 05:14:42.000    652234.3045   3579837.9245   5220900.3937   5  14   3.1740   8.4439   8.1778   3.3639   6.9871   2.5292   0.00    0.0
2020/08/06 05:14:52.000    652234.3090   3579837.9325   5220900.4683   5  14   3.1736   8.4517   8.1833   3.3647   6.9946   2.5317   0.00    0.0
2020/08/06 05:15:02.000    652234.2577   3579837.9350   5220900.5022   5  14   3.1732   8.4595   8.1886   3.3655   7.0019   2.5341   0.00    0.0
2020/08/06 05:15:12.000    652234.2151   3579837.8235   5220900.4962   5  14   3.1728   8.4671   8.1938   3.3662   7.0091   2.5365   0.00    0.0
2020/08/06 05:15:22.000    652234.1705   3579837.8129   5220900.5535   5  14   3.1724   8.4747   8.1988   3.3669   7.0162   2.5388   0.00    0.0
2020/08/06 05:15:32.000    652234.0597   3579837.9026   5220900.6544   5  14   3.1720   8.4822   8.2038   3.3676   7.0232   2.5411   0.00    0.0
2020/08/06 05:15:42.000    652233.9491   3579837.8908   5220900.7688   5  14   3.1716   8.4896   8.2086   3.3682   7.0300   2.5433   0.00    0.0
2020/08/06 05:15:52.000    652234.2500   3579838.6633   5220901.8232   5  13   3.4167   9.0089   8.9514   3.8932   7.7571   3.3177   0.00    0.0
2020/08/06 05:16:02.000    652234.2290   3579838.6597   5220901.9251   5  13   3.4168   9.0200   8.9614   3.8962   7.7688   3.3228   0.00    0.0
2020/08/06 05:16:12.000    652234.2737   3579838.6972   5220902.0365   5  13   3.4169   9.0309   8.9713   3.8993   7.7803   3.3279   0.00    0.0
2020/08/06 05:16:22.000    652234.2870   3579838.7178   5220902.2078   5  13   3.4170   9.0418   8.9810   3.9022   7.7917   3.3328   0.00    0.0
2020/08/06 05:16:32.000    652233.9612   3579837.6494   5220901.4643   5  14   3.0285   7.7876   8.2324   2.8188   6.6490   2.3285   0.00    0.0
2020/08/06 05:16:42.000    652234.0047   3579837.6881   5220901.5416   5  14   3.0285   7.7946   8.2397   2.8201   6.6573   2.3331   0.00    0.0
2020/08/06 05:16:52.000    652234.0102   3579837.7421   5220901.5757   5  14   3.0285   7.8016   8.2470   2.8214   6.6655   2.3376   0.00    0.0
2020/08/06 05:17:02.000    652233.9884   3579837.8250   5220901.7083   5  14   3.0285   7.8085   8.2541   2.8227   6.6735   2.3420   0.00    0.0
2020/08/06 05:17:12.000    652233.9335   3579837.8710   5220901.7037   5  14   3.0285   7.8154   8.2611   2.8239   6.6815   2.3464   0.00    0.0
2020/08/06 05:17:22.000    652233.8972   3579837.8199   5220901.6054   5  14   3.0285   7.8221   8.2680   2.8251   6.6893   2.3508   0.00    0.0
2020/08/06 05:17:32.000    652233.9168   3579837.8908   5220901.5954   5  14   3.0285   7.8288   8.2748   2.8263   6.6970   2.3551   0.00    0.0
2020/08/06 05:17:42.000    652233.9532   3579837.9756   5220901.5539   5  14   3.0285   7.8355   8.2814   2.8274   6.7047   2.3594   0.00    0.0
2020/08/06 05:17:52.000    652234.0078   3579837.9333   5220901.4404   5  14   3.0285   7.8420   8.2879   2.8285   6.7121   2.3637   0.00    0.0
2020/08/06 05:18:02.000    652234.0146   3579837.9468   5220901.4669   5  14   3.0285   7.8485   8.2943   2.8296   6.7195   2.3678   0.00    0.0
2020/08/06 05:18:12.000    652234.0281   3579837.9851   5220901.4205   5  14   3.0285   7.8549   8.3006   2.8307   6.7268   2.3720   0.00    0.0
2020/08/06 05:18:22.000    652234.0188   3579838.0984   5220901.4913   5  14   3.0285   7.8612   8.3068   2.8317   6.7339   2.3761   0.00    0.0
2020/08/06 05:18:32.000    652234.0249   3579838.1875   5220901.5766   5  14   3.0285   7.8675   8.3128   2.8328   6.7409   2.3801   0.00    0.0
2020/08/06 05:18:42.000    652234.0270   3579838.2005   5220901.4754   5  14   3.0285   7.8737   8.3188   2.8337   6.7478   2.3841   0.00    0.0
2020/08/06 05:18:52.000    652234.1699   3579838.2114   5220901.4372   5  14   3.0285   7.8798   8.3245   2.8347   6.7546   2.3881   0.00    0.0
2020/08/06 05:19:02.000    652234.2248   3579838.2427   5220901.4576   5  14   3.0285   7.8858   8.3302   2.8356   6.7612   2.3920   0.00    0.0
2020/08/06 05:19:12.000    652234.2033   3579838.2166   5220901.2918   5  14   3.0285   7.8917   8.3357   2.8365   6.7678   2.3958   0.00    0.0
2020/08/06 05:19:22.000    652234.1871   3579838.2884   5220901.0681   5  14   3.0285   7.8976   8.3412   2.8374   6.7742   2.3996   0.00    0.0
2020/08/06 05:19:32.000    652234.1672   3579838.3791   5220900.9768   5  14   3.0285   7.9034   8.3464   2.8382   6.7804   2.4034   0.00    0.0
