% program   : RTKLIB ver.2.4.3
% inp file  : C:\Users\Satellite\Desktop\Разработки\Soft\RouteGNSS\TestData\ubin219f20.20o
% inp file  : C:\Users\Satellite\Desktop\Разработки\Soft\RouteGNSS\TestData\karg219f20.20G
% inp file  : C:\Users\Satellite\Desktop\Разработки\Soft\RouteGNSS\TestData\karg219f20.20N
% obs start : 2020/08/06 05:19:42.0 UTC (week2117 364800.0s)
% obs end   : 2020/08/06 06:19:32.0 UTC (week2117 368390.0s)
% pos mode  : Single
% elev mask : 15.0 deg
% ionos opt : Broadcast
% tropo opt : Saastamoinen
% ephemeris : Broadcast
% navi sys  : GPS GLONASS Galileo QZSS BDS NavIC SBAS
%
% (x/y/z-ecef=WGS84,Q=1:fix,2:float,3:sbas,4:dgps,5:single,6:ppp,ns=# of satellites)
%  UTC                       x-ecef(m)      y-ecef(m)      z-ecef(m)   Q  ns   sdx(m)   sdy(m)   sdz(m)  sdxy(m)  sdyz(m)  sdzx(m) age(s)  ratio
2020/08/06 05:59:42.000    652233.7118   3579834.7451   5220894.6026   5   8   7.0368  13.7087  19.2753  -6.0149  12.7908  -2.5203   0.00    0.0
2020/08/06 05:59:52.000    652233.7076   3579834.7773   5220894.6455   5   8   7.0412  13.7027  19.2303  -6.0228  12.7636  -2.5131   0.00    0.0
2020/08/06 06:00:02.000    652233.6982   3579834.7438   5220894.6246   5   8   7.0456  13.6966  19.1853  -6.0307  12.7364  -2.5059   0.00    0.0
2020/08/06 06:00:12.000    652233.6407   3579834.7805   5220894.5656   5   8   7.0500  13.6906  19.1403  -6.0385  12.7091  -2.4986   0.00    0.0
2020/08/06 06:00:22.000    652233.6316   3579834.8274   5220894.3915   5   8   7.0544  13.6845  19.0953  -6.0464  12.6817  -2.4913   0.00    0.0
2020/08/06 06:00:32.000    652233.6762   3579834.8209   5220894.3216   5   8   7.0588  13.6784  19.0502  -6.0542  12.6543  -2.4839   0.00    0.0
2020/08/06 06:00:42.000    652233.6727   3579834.7448   5220894.2312   5   8   7.0633  13.6723  19.0051  -6.0620  12.6268  -2.4765   0.00    0.0
2020/08/06 06:00:52.000    652233.6472   3579834.6964   5220894.0910   5   8   7.0677  13.6662  18.9600  -6.0698  12.5993  -2.4690   0.00    0.0
2020/08/06 06:01:02.000    652233.5855   3579834.7676   5220894.1434   5   8   7.0721  13.6601  18.9149  -6.0776  12.5717  -2.4614   0.00    0.0
2020/08/06 06:01:12.000    652233.5216   3579834.8160   5220894.1184   5   8   7.0766  13.6540  18.8698  -6.0853  12.5441  -2.4538   0.00    0.0
2020/08/06 06:01:22.000    652233.4690   3579834.9017   5220894.1031   5   8   7.0810  13.6478  18.8247  -6.0931  12.5165  -2.4461   0.00    0.0
2020/08/06 06:01:32.000    652233.4117   3579834.9974   5220894.1744   5   8   7.0855  13.6417  18.7796  -6.1008  12.4888  -2.4384   0.00    0.0
2020/08/06 06:01:42.000    652233.3596   3579835.0332   5220894.2169   5   7   7.0900  13.6355  18.7345  -6.1085  12.4610  -2.4306   0.00    0.0
2020/08/06 06:01:52.000    652233.2830   3579835.0960   5220894.1150   5   7   7.0944  13.6294  18.6894  -6.1162  12.4333  -2.4228   0.00    0.0
2020/08/06 06:02:02.000    652233.2429   3579835.1151   5220894.0624   5   7   7.0989  13.6232  18.6444  -6.1238  12.4055  -2.4149   0.00    0.0
2020/08/06 06:02:12.000    652233.2653   3579835.1251   5220894.0463   5   7   7.1034  13.6170  18.5993  -6.1315  12.3777  -2.4070   0.00    0.0
2020/08/06 06:02:22.000    652233.2857   3579835.0555   5220893.9002   5   7   7.1079  13.6109  18.5543  -6.1391  12.3498  -2.3990   0.00    0.0
2020/08/06 06:02:32.000    652233.2723   3579835.0355   5220893.8127   5   7   7.1124  13.6047  18.5093  -6.1467  12.3220  -2.3909   0.00    0.0
2020/08/06 06:02:42.000    652233.2926   3579834.9541   5220893.7787   5   7   7.1169  13.5985  18.4643  -6.1543  12.2941  -2.3828   0.00    0.0
2020/08/06 06:02:52.000    652233.2765   3579834.9540   5220893.7728   5   7   7.1214  13.5924  18.4194  -6.1619  12.2662  -2.3746   0.00    0.0
2020/08/06 06:03:02.000    652233.2538   3579834.9876   5220893.8308   5   7   7.1259  13.5862  18.3745  -6.1695  12.2383  -2.3664   0.00    0.0
2020/08/06 06:03:12.000    652233.2136   3579835.1102   5220894.0112   5   7   7.1304  13.5800  18.3297  -6.1770  12.2103  -2.3581   0.00    0.0
2020/08/06 06:03:22.000    652233.1922   3579835.2006   5220894.0668   5   7   7.1349  13.5738  18.2848  -6.1845  12.1824  -2.3497   0.00    0.0
2020/08/06 06:03:32.000    652233.1874   3579835.1933   5220894.1818   5   7   7.1394  13.5677  18.2401  -6.1920  12.1544  -2.3413   0.00    0.0
2020/08/06 06:03:42.000    652233.1802   3579835.1683   5220894.2157   5   7   7.1440  13.5615  18.1954  -6.1995  12.1265  -2.3329   0.00    0.0
2020/08/06 06:03:52.000    652233.2029   3579835.1442   5220894.2276   5   7   7.1485  13.5554  18.1507  -6.2070  12.0985  -2.3244   0.00    0.0
2020/08/06 06:04:02.000    652233.2221   3579835.1134   5220894.2674   5   7   7.1531  13.5492  18.1061  -6.2144  12.0705  -2.3158   0.00    0.0
2020/08/06 06:04:12.000    652233.2767   3579835.0143   5220894.1826   5   7   7.1576  13.5431  18.0615  -6.2219  12.0426  -2.3072   0.00    0.0
2020/08/06 06:04:22.000    652233.3586   3579834.9458   5220894.1235   5   7   7.1621  13.5369  18.0170  -6.2293  12.0146  -2.2985   0.00    0.0
2020/08/06 06:04:32.000    652233.4586   3579834.9321   5220894.1094   5   7   7.1667  13.5308  17.9726  -6.2367  11.9866  -2.2897   0.00    0.0
2020/08/06 06:04:42.000    652233.5358   3579834.8925   5220893.9891   5   7   7.1713  13.5247  17.9283  -6.2441  11.9587  -2.2809   0.00    0.0
2020/08/06 06:04:52.000    652233.6040   3579834.7961   5220893.9749   5   7   7.1758  13.5186  17.8840  -6.2514  11.9307  -2.2720   0.00    0.0
2020/08/06 06:05:02.000    652233.6186   3579834.7236   5220894.0197   5   7   7.1804  13.5125  17.8397  -6.2588  11.9028  -2.2631   0.00    0.0
2020/08/06 06:05:12.000    652233.5806   3579834.7172   5220894.0949   5   7   7.1850  13.5064  17.7956  -6.2661  11.8748  -2.2541   0.00    0.0
2020/08/06 06:05:22.000    652233.5359   3579834.7782   5220894.2555   5   7   7.1895  13.5003  17.7515  -6.2734  11.8469  -2.2450   0.00    0.0
2020/08/06 06:05:32.000    652233.5148   3579834.8514   5220894.5467   5   7   7.1941  13.4942  17.7075  -6.2807  11.8190  -2.2359   0.00    0.0
2020/08/06 06:05:42.000    652233.4443   3579834.9800   5220894.7756   5   7   7.1987  13.4882  17.6636  -6.2879  11.7911  -2.2267   0.00    0.0
2020/08/06 06:05:52.000    652233.3868   3579835.1620   5220894.9802   5   7   7.2033  13.4821  17.6198  -6.2952  11.7632  -2.2175   0.00    0.0
2020/08/06 06:06:02.000    652233.3758   3579835.2970   5220895.2717   5   7   7.2079  13.4761  17.5761  -6.3024  11.7353  -2.2082   0.00    0.0
2020/08/06 06:06:12.000    652233.3795   3579835.3026   5220895.3605   5   7   7.2125  13.4701  17.5324  -6.3096  11.7074  -2.1988   0.00    0.0
2020/08/06 06:06:22.000    652233.4625   3579835.2338   5220895.2722   5   7   7.2171  13.4641  17.4889  -6.3168  11.6796  -2.1894   0.00    0.0
2020/08/06 06:06:32.000    652233.5368   3579835.1613   5220895.2565   5   7   7.2217  13.4581  17.4454  -6.3240  11.6518  -2.1799   0.00    0.0
2020/08/06 06:06:42.000    652233.6231   3579835.0853   5220895.2273   5   7   7.2263  13.4521  17.4020  -6.3312  11.6240  -2.1703   0.00    0.0
2020/08/06 06:06:52.000    652233.6701   3579835.0386   5220895.1009   5   7   7.2309  13.4462  17.3587  -6.3383  11.5962  -2.1607   0.00    0.0
2020/08/06 06:07:02.000    652233.7188   3579834.9762   5220894.9602   5   7   7.2355  13.4402  17.3156  -6.3454  11.5685  -2.1510   0.00    0.0
2020/08/06 06:07:12.000    652233.7076   3579834.9921   5220894.9398   5   7   7.2401  13.4343  17.2725  -6.3525  11.5408  -2.1412   0.00    0.0
2020/08/06 06:07:22.000    652233.6299   3579835.0656   5220895.0172   5   7   7.2447  13.4284  17.2295  -6.3596  11.5131  -2.1314   0.00    0.0
2020/08/06 06:07:32.000    652233.5285   3579835.0305   5220894.9892   5   7   7.2493  13.4225  17.1866  -6.3666  11.4854  -2.1215   0.00    0.0
2020/08/06 06:07:42.000    652233.4887   3579834.9849   5220895.0172   5   7   7.2539  13.4166  17.1439  -6.3737  11.4578  -2.1115   0.00    0.0
2020/08/06 06:07:52.000    652233.4498   3579834.9699   5220895.0143   5   7   7.2586  13.4107  17.1012  -6.3807  11.4302  -2.1015   0.00    0.0
2020/08/06 06:08:02.000    652233.4278   3579834.9898   5220895.0112   5   7   7.2632  13.4049  17.0586  -6.3877  11.4027  -2.0914   0.00    0.0
2020/08/06 06:08:12.000    652233.3673   3579834.9613   5220894.9020   5   7   7.2678  13.3991  17.0162  -6.3947  11.3751  -2.0812   0.00    0.0
2020/08/06 06:08:22.000    652233.3524   3579834.9884   5220894.8812   5   7   7.2724  13.3933  16.9739  -6.4016  11.3476  -2.0710   0.00    0.0
2020/08/06 06:08:32.000    652233.3643   3579834.9819   5220894.8397   5   7   7.2771  13.3875  16.9317  -6.4086  11.3202  -2.0606   0.00    0.0
2020/08/06 06:08:42.000    652233.4066   3579834.9800   5220894.8198   5   7   7.2817  13.3817  16.8896  -6.4155  11.2928  -2.0502   0.00    0.0
2020/08/06 06:08:52.000    652233.4137   3579834.9804   5220894.8397   5   7   7.2863  13.3759  16.8476  -6.4224  11.2654  -2.0398   0.00    0.0
2020/08/06 06:09:02.000    652233.3785   3579834.8899   5220894.7648   5   7   7.2910  13.3702  16.8057  -6.4292  11.2381  -2.0292   0.00    0.0
2020/08/06 06:09:12.000    652233.3642   3579835.0325   5220894.9500   5   7   7.2956  13.3645  16.7640  -6.4361  11.2108  -2.0186   0.00    0.0
2020/08/06 06:09:22.000    652233.3492   3579835.0645   5220894.9885   5   7   7.3003  13.3588  16.7223  -6.4429  11.1835  -2.0079   0.00    0.0
2020/08/06 06:09:32.000    652233.2990   3579835.0964   5220895.0351   5   7   7.3049  13.3531  16.6808  -6.4498  11.1563  -1.9971   0.00    0.0
2020/08/06 06:09:42.000    652233.2644   3579835.0229   5220895.0074   5   7   7.3096  13.3475  16.6394  -6.4566  11.1291  -1.9863   0.00    0.0
2020/08/06 06:09:52.000    652233.2812   3579834.9653   5220895.0728   5   7   7.3142  13.3418  16.5982  -6.4633  11.1020  -1.9753   0.00    0.0
2020/08/06 06:10:02.000    652233.3392   3579834.9748   5220895.1079   5   7   7.3188  13.3362  16.5570  -6.4701  11.0749  -1.9643   0.00    0.0
2020/08/06 06:10:12.000    652233.3851   3579834.9841   5220895.0328   5   7   7.3235  13.3306  16.5160  -6.4768  11.0478  -1.9532   0.00    0.0
2020/08/06 06:10:22.000    652233.4065   3579835.0340   5220894.9739   5   7   7.3281  13.3250  16.4751  -6.4835  11.0208  -1.9420   0.00    0.0
2020/08/06 06:10:32.000    652233.4801   3579835.0823   5220894.9080   5   7   7.3328  13.3195  16.4344  -6.4902  10.9939  -1.9308   0.00    0.0
2020/08/06 06:10:42.000    652233.5634   3579835.0942   5220894.9140   5   7   7.3374  13.3139  16.3937  -6.4969  10.9670  -1.9194   0.00    0.0
2020/08/06 06:10:52.000    652233.6092   3579835.1047   5220894.9804   5   7   7.3421  13.3084  16.3532  -6.5035  10.9401  -1.9080   0.00    0.0
2020/08/06 06:11:02.000    652233.6159   3579835.0842   5220895.0448   5   7   7.3467  13.3029  16.3129  -6.5102  10.9133  -1.8964   0.00    0.0
2020/08/06 06:11:12.000    652233.5810   3579835.0174   5220894.9059   5   7   7.3514  13.2974  16.2726  -6.5168  10.8866  -1.8848   0.00    0.0
2020/08/06 06:11:22.000    652233.5444   3579834.9537   5220894.9158   5   7   7.3560  13.2920  16.2325  -6.5233  10.8599  -1.8731   0.00    0.0
2020/08/06 06:11:32.000    652233.5327   3579834.9253   5220894.8933   5   7   7.3607  13.2866  16.1926  -6.5299  10.8332  -1.8613   0.00    0.0
2020/08/06 06:11:42.000    652233.5207   3579834.8971   5220894.7863   5   7   7.3653  13.2811  16.1527  -6.5364  10.8066  -1.8494   0.00    0.0
2020/08/06 06:11:52.000    652233.5172   3579834.8537   5220894.6280   5   7   7.3700  13.2757  16.1130  -6.5430  10.7801  -1.8374   0.00    0.0
2020/08/06 06:12:02.000    652233.5660   3579834.8746   5220894.5078   5   7   7.3747  13.2704  16.0735  -6.5495  10.7536  -1.8253   0.00    0.0
2020/08/06 06:12:12.000    652233.6197   3579834.8941   5220894.4302   5   7   7.3793  13.2650  16.0340  -6.5559  10.7271  -1.8131   0.00    0.0
2020/08/06 06:12:22.000    652233.6778   3579834.9496   5220894.3983   5   7   7.3840  13.2597  15.9948  -6.5624  10.7007  -1.8008   0.00    0.0
2020/08/06 06:12:32.000    652233.7089   3579834.9777   5220894.3310   5   7   7.3886  13.2544  15.9556  -6.5688  10.6744  -1.7884   0.00    0.0
2020/08/06 06:12:42.000    652233.7213   3579834.9536   5220894.1972   5   7   7.3933  13.2491  15.9166  -6.5752  10.6481  -1.7758   0.00    0.0
2020/08/06 06:12:52.000    652233.6903   3579834.9299   5220894.0954   5   7   7.3979  13.2438  15.8777  -6.5816  10.6219  -1.7632   0.00    0.0
2020/08/06 06:13:02.000    652233.6280   3579835.0026   5220894.1000   5   7   7.4026  13.2385  15.8390  -6.5879  10.5957  -1.7505   0.00    0.0
2020/08/06 06:13:12.000    652233.5930   3579835.0008   5220894.1866   5   7   7.4072  13.2333  15.8004  -6.5943  10.5696  -1.7376   0.00    0.0
2020/08/06 06:13:22.000    652233.6141   3579834.9588   5220894.1229   5   7   7.4119  13.2281  15.7619  -6.6006  10.5435  -1.7247   0.00    0.0
2020/08/06 06:13:32.000    652233.5618   3579834.9921   5220894.1144   5   7   7.4165  13.2229  15.7236  -6.6069  10.5175  -1.7116   0.00    0.0
2020/08/06 06:13:42.000    652233.5630   3579835.0323   5220894.1994   5   7   7.4212  13.2177  15.6854  -6.6131  10.4916  -1.6984   0.00    0.0
2020/08/06 06:13:52.000    652233.5903   3579834.9988   5220894.1633   5   7   7.4258  13.2126  15.6474  -6.6194  10.4657  -1.6851   0.00    0.0
2020/08/06 06:14:02.000    652233.6082   3579834.9423   5220893.9949   5   7   7.4304  13.2074  15.6095  -6.6256  10.4398  -1.6716   0.00    0.0
2020/08/06 06:14:12.000    652233.5690   3579834.9610   5220894.0082   5   7   7.4351  13.2023  15.5717  -6.6318  10.4140  -1.6581   0.00    0.0
2020/08/06 06:14:22.000    652233.4959   3579834.9770   5220893.9758   5   7   7.4397  13.1972  15.5341  -6.6380  10.3883  -1.6443   0.00    0.0
2020/08/06 06:14:32.000    652233.4277   3579835.0486   5220893.9940   5   7   7.4444  13.1921  15.4967  -6.6441  10.3627  -1.6305   0.00    0.0
2020/08/06 06:14:42.000    652233.3724   3579835.1089   5220894.0003   5   7   7.4490  13.1871  15.4593  -6.6502  10.3371  -1.6165   0.00    0.0
2020/08/06 06:14:52.000    652233.2725   3579835.1387   5220893.9620   5   7   7.4536  13.1820  15.4222  -6.6563  10.3115  -1.6024   0.00    0.0
2020/08/06 06:15:02.000    652233.1962   3579835.1800   5220893.9676   5   7   7.4583  13.1770  15.3851  -6.6624  10.2860  -1.5881   0.00    0.0
2020/08/06 06:15:12.000    652233.1367   3579835.1950   5220893.9754   5   7   7.4629  13.1720  15.3482  -6.6685  10.2606  -1.5737   0.00    0.0
2020/08/06 06:15:22.000    652233.1046   3579835.2653   5220893.9782   5   7   7.4675  13.1670  15.3115  -6.6745  10.2352  -1.5591   0.00    0.0
2020/08/06 06:15:32.000    652233.1215   3579835.2602   5220893.9342   5   7   7.4722  13.1620  15.2749  -6.6805  10.2099  -1.5444   0.00    0.0
2020/08/06 06:15:42.000    652233.1327   3579835.2599   5220893.9207   5   7   7.4768  13.1571  15.2384  -6.6864  10.1847  -1.5295   0.00    0.0
2020/08/06 06:15:52.000    652233.1507   3579835.2421   5220894.0008   5   7   7.4814  13.1522  15.2021  -6.6924  10.1595  -1.5144   0.00    0.0
2020/08/06 06:16:02.000    652233.1594   3579835.2244   5220893.9727   5   7   7.4860  13.1472  15.1660  -6.6983  10.1344  -1.4992   0.00    0.0
2020/08/06 06:16:12.000    652233.1682   3579835.2888   5220893.9943   5   7   7.4906  13.1424  15.1299  -6.7042  10.1093  -1.4838   0.00    0.0
2020/08/06 06:16:22.000    652233.1918   3579835.3145   5220894.0453   5   7   7.4952  13.1375  15.0941  -6.7101  10.0843  -1.4682   0.00    0.0
2020/08/06 06:16:32.000    652233.6322   3579835.6218   5220894.8284   5   6   8.9666  13.5155  16.7906  -5.4226  11.1767   5.8647   0.00    0.0
2020/08/06 06:16:42.000    652233.5875   3579835.6052   5220894.8137   5   6   8.9737  13.5086  16.7564  -5.4324  11.1504   5.8700   0.00    0.0
2020/08/06 06:16:52.000    652233.5694   3579835.5817   5220894.8652   5   6   8.9807  13.5017  16.7222  -5.4422  11.1241   5.8754   0.00    0.0
2020/08/06 06:17:02.000    652233.5463   3579835.5443   5220894.7902   5   6   8.9877  13.4947  16.6882  -5.4519  11.0979   5.8806   0.00    0.0
2020/08/06 06:17:12.000    652233.5441   3579835.5251   5220894.7714   5   6   8.9947  13.4878  16.6542  -5.4617  11.0716   5.8859   0.00    0.0
2020/08/06 06:17:22.000    652233.5456   3579835.5099   5220894.7638   5   6   9.0016  13.4809  16.6204  -5.4715  11.0454   5.8911   0.00    0.0
2020/08/06 06:17:32.000    652233.5974   3579835.5627   5220894.8971   5   6   9.0086  13.4740  16.5867  -5.4813  11.0192   5.8962   0.00    0.0
2020/08/06 06:17:42.000    652233.6123   3579835.5407   5220894.8760   5   6   9.0156  13.4671  16.5530  -5.4910  10.9931   5.9013   0.00    0.0
2020/08/06 06:17:52.000    652233.5870   3579835.5683   5220894.8830   5   6   9.0226  13.4602  16.5195  -5.5008  10.9669   5.9064   0.00    0.0
2020/08/06 06:18:02.000    652233.6030   3579835.6289   5220895.0095   5   6   9.0296  13.4533  16.4861  -5.5105  10.9408   5.9114   0.00    0.0
2020/08/06 06:18:12.000    652233.6614   3579835.5765   5220895.0562   5   6   9.0365  13.4464  16.4527  -5.5202  10.9147   5.9164   0.00    0.0
2020/08/06 06:18:22.000    652233.7004   3579835.5422   5220895.0633   5   6   9.0435  13.4396  16.4195  -5.5299  10.8887   5.9214   0.00    0.0
2020/08/06 06:18:32.000    652233.7338   3579835.5302   5220895.1357   5   6   9.0505  13.4327  16.3864  -5.5396  10.8626   5.9263   0.00    0.0
2020/08/06 06:18:42.000    652233.7729   3579835.5162   5220895.2012   5   6   9.0574  13.4258  16.3534  -5.5493  10.8366   5.9312   0.00    0.0
2020/08/06 06:18:52.000    652233.7707   3579835.4088   5220895.1647   5   6   9.0644  13.4190  16.3205  -5.5590  10.8106   5.9361   0.00    0.0
2020/08/06 06:19:02.000    652233.8006   3579835.3299   5220895.1856   5   6   9.0713  13.4122  16.2877  -5.5687  10.7847   5.9409   0.00    0.0
2020/08/06 06:19:12.000    652233.7961   3579835.3622   5220895.3080   5   6   9.0782  13.4053  16.2550  -5.5783  10.7588   5.9457   0.00    0.0
2020/08/06 06:19:22.000    652233.7916   3579835.3827   5220895.3572   5   6   9.0852  13.3985  16.2224  -5.5879  10.7329   5.9504   0.00    0.0
2020/08/06 06:19:32.000    652233.8265   3579835.5128   5220895.5787   5   6   9.0921  13.3917  16.1899  -5.5975  10.7070   5.9551   0.00    0.0
